[
  {
    "nom": "28 Rue Championnet 75018 Paris",
    "lat": 48.8954,
    "lon": 2.35,
    "arrondissement": 18
  },
  {
    "nom": "2 Rue Duroc 75007 Paris",
    "lat": 48.84828,
    "lon": 2.315725,
    "arrondissement": 7
  },
  {
    "nom": "1 Rue Fernand Labori 75018 Paris",
    "lat": 48.898304,
    "lon": 2.3423252,
    "arrondissement": 18
  },
  {
    "nom": "1-3 Av. du Général Sarrail 75016 Paris",
    "lat": 48.846973,
    "lon": 2.2558389,
    "arrondissement": 16
  },
  {
    "nom": "40 Rue Sorbier 75020 Paris",
    "lat": 48.865685,
    "lon": 2.392972,
    "arrondissement": 20
  },
  {
    "nom": "1 Rue Manin 75019 Paris",
    "lat": 48.8766,
    "lon": 2.3790176,
    "arrondissement": 19
  },
  {
    "nom": "1bis Rue Ravignan 75018 Paris",
    "lat": 48.88508,
    "lon": 2.3375535,
    "arrondissement": 18
  },
  {
    "nom": "145 Rue Raymond Losserand 75014 Paris",
    "lat": 48.83126,
    "lon": 2.313088,
    "arrondissement": 14
  },
  {
    "nom": "66 Rue Henri Barbusse 75014 Paris",
    "lat": 48.83912,
    "lon": 2.337229,
    "arrondissement": 14
  },
  {
    "nom": "7 boulevard de Picpus 75012 Paris",
    "lat": 48.840687,
    "lon": 2.400428,
    "arrondissement": 12
  },
  {
    "nom": "26 Rue Claude Decaen 75012 Paris",
    "lat": 48.83519,
    "lon": 2.4002905,
    "arrondissement": 12
  },
  {
    "nom": "28 Rue de Paradis 75010 Paris",
    "lat": 48.875076,
    "lon": 2.352321,
    "arrondissement": 10
  },
  {
    "nom": "31 boulevard Rochechouart 75009 Paris",
    "lat": 48.882973,
    "lon": 2.345487,
    "arrondissement": 9
  },
  {
    "nom": "19 Rue Tronchet 75008 Paris",
    "lat": 48.87236,
    "lon": 2.326167,
    "arrondissement": 8
  },
  {
    "nom": "18 Rue Linnée 75005 Paris",
    "lat": 48.845257,
    "lon": 2.3548336,
    "arrondissement": 5
  },
  {
    "nom": "15 Rue Joseph Bara 75006 Paris",
    "lat": 48.84189,
    "lon": 2.333149,
    "arrondissement": 6
  },
  {
    "nom": "5 Rue Frédéric Loliée 75020 Paris",
    "lat": 48.8495,
    "lon": 2.4062,
    "arrondissement": 20
  },
  {
    "nom": "2 Rue des Couronnes 75020 Paris",
    "lat": 48.8692,
    "lon": 2.3809,
    "arrondissement": 20
  },
  {
    "nom": "1 Rue Jean-François Lépine 75018 Paris",
    "lat": 48.8861,
    "lon": 2.3591,
    "arrondissement": 18
  },
  {
    "nom": "8 Rue Adolphe Mille 75019 Paris",
    "lat": 48.8886,
    "lon": 2.3888,
    "arrondissement": 19
  },
  {
    "nom": "21 Rue Fernand Braudel 75013 Paris",
    "lat": 48.83623,
    "lon": 2.3724644,
    "arrondissement": 13
  },
  {
    "nom": "20 Avenue Ledru Rollin 75012 Paris",
    "lat": 48.84652,
    "lon": 2.3692153,
    "arrondissement": 12
  },
  {
    "nom": "25 Rue Henri Barbusse 75005 Paris",
    "lat": 48.8415,
    "lon": 2.338973,
    "arrondissement": 5
  },
  {
    "nom": "52 Rue Charles Hermite 75018 Paris",
    "lat": 48.89905,
    "lon": 2.3649826,
    "arrondissement": 18
  },
  {
    "nom": "26 Place Etienne Pernet 75015 Paris",
    "lat": 48.842594,
    "lon": 2.2920513,
    "arrondissement": 15
  },
  {
    "nom": "11 Rue Gerbert 75015 Paris",
    "lat": 48.839577,
    "lon": 2.2986453,
    "arrondissement": 15
  },
  {
    "nom": "61 Avenue de Flandre 75019 Paris",
    "lat": 48.888195,
    "lon": 2.37308,
    "arrondissement": 19
  },
  {
    "nom": "3 Rue de Bérite 75006 Paris",
    "lat": 48.847874,
    "lon": 2.3239782,
    "arrondissement": 6
  },
  {
    "nom": "63 Boulevard Richard Lenoir 75011 Paris",
    "lat": 48.86023,
    "lon": 2.3719914,
    "arrondissement": 11
  },
  {
    "nom": "8 Rue Danton 75006 Paris",
    "lat": 48.85262,
    "lon": 2.342107,
    "arrondissement": 6
  },
  {
    "nom": "2 Avenue de la Porte de Villiers 75017 Paris",
    "lat": 48.88328,
    "lon": 2.286938,
    "arrondissement": 17
  },
  {
    "nom": "94 Rue Saint-Maur 75011 Paris",
    "lat": 48.865356,
    "lon": 2.377939,
    "arrondissement": 11
  },
  {
    "nom": "2 Rue Louis Murat 75008 Paris",
    "lat": 48.875854,
    "lon": 2.309542,
    "arrondissement": 8
  },
  {
    "nom": "34 Rue Saint-Jacques 75005 Paris",
    "lat": 48.850613,
    "lon": 2.3453429,
    "arrondissement": 5
  },
  {
    "nom": "126 Rue Legendre 75017 Paris",
    "lat": 48.8888,
    "lon": 2.3222,
    "arrondissement": 17
  },
  {
    "nom": "47 Rue de Vouillé 75015 Paris",
    "lat": 48.83389,
    "lon": 2.3081343,
    "arrondissement": 15
  },
  {
    "nom": "10 Avenue de Flandre 75019 Paris",
    "lat": 48.88472,
    "lon": 2.369961,
    "arrondissement": 19
  },
  {
    "nom": "55 Avenue de Ségur 75007 Paris",
    "lat": 48.849297,
    "lon": 2.3077698,
    "arrondissement": 7
  },
  {
    "nom": "29 Rue Cotentin 75015 Paris",
    "lat": 48.838547,
    "lon": 2.312675,
    "arrondissement": 15
  },
  {
    "nom": "6 Rue Guébriant 75020 Paris",
    "lat": 48.8731,
    "lon": 2.4092,
    "arrondissement": 20
  },
  {
    "nom": "42 Rue Jean de la Fontaine 75016 Paris",
    "lat": 48.850998,
    "lon": 2.2719011,
    "arrondissement": 16
  },
  {
    "nom": "87 Boulevard Beaumarchais 75003 Paris",
    "lat": 48.858967,
    "lon": 2.36738,
    "arrondissement": 3
  },
  {
    "nom": "2 Rue Duroc 75007 Paris",
    "lat": 48.84828,
    "lon": 2.315725,
    "arrondissement": 7
  },
  {
    "nom": "7 Rue d'Alexandrie 75002 Paris",
    "lat": 48.868008,
    "lon": 2.3508835,
    "arrondissement": 2
  },
  {
    "nom": "110 Rue Ordener 75018 Paris",
    "lat": 48.89311,
    "lon": 2.34066,
    "arrondissement": 18
  },
  {
    "nom": "68 Avenue Mozart 75016 Paris",
    "lat": 48.8534,
    "lon": 2.2685,
    "arrondissement": 16
  },
  {
    "nom": "52 Boulevard Arago 75013 Paris",
    "lat": 48.835163,
    "lon": 2.3446052,
    "arrondissement": 13
  },
  {
    "nom": "2 Rue des Couronnes 75020 Paris",
    "lat": 48.8692,
    "lon": 2.3809,
    "arrondissement": 20
  },
  {
    "nom": "80 Rue de Dantzig 75015 Paris",
    "lat": 48.8304,
    "lon": 2.295999,
    "arrondissement": 15
  },
  {
    "nom": "77 Rue Nationale 75013 Paris",
    "lat": 48.826855,
    "lon": 2.3665764,
    "arrondissement": 13
  },
  {
    "nom": "8 boulevard de la Madeleine 75009 Paris",
    "lat": 48.86972,
    "lon": 2.326691,
    "arrondissement": 9
  },
  {
    "nom": "2 Rue Duroc 75007 Paris",
    "lat": 48.84828,
    "lon": 2.315725,
    "arrondissement": 7
  },
  {
    "nom": "1 Rue Roubo 75011 Paris",
    "lat": 48.849968,
    "lon": 2.387246,
    "arrondissement": 11
  },
  {
    "nom": "18 Avenue Victor Hugo 75016 Paris",
    "lat": 48.87244,
    "lon": 2.2915578,
    "arrondissement": 16
  },
  {
    "nom": "16 Place des États-Unis 75016 Paris",
    "lat": 48.8685,
    "lon": 2.2927,
    "arrondissement": 16
  },
  {
    "nom": "8 Rue Adolphe Mille 75019 Paris",
    "lat": 48.8886,
    "lon": 2.3888,
    "arrondissement": 19
  },
  {
    "nom": "170 boulevard Pereire 75017 Paris",
    "lat": 48.882423,
    "lon": 2.2922037,
    "arrondissement": 17
  },
  {
    "nom": "32 Rue Broussais 75014 Paris",
    "lat": 48.82844,
    "lon": 2.336613,
    "arrondissement": 14
  },
  {
    "nom": "66 Rue de Rennes 75006 Paris",
    "lat": 48.852127,
    "lon": 2.331346,
    "arrondissement": 6
  },
  {
    "nom": "12 Rue des Pyramides 75001 Paris",
    "lat": 48.86486,
    "lon": 2.3329713,
    "arrondissement": 1
  },
  {
    "nom": "44 Avenue George V 75008 Paris",
    "lat": 48.87057,
    "lon": 2.301121,
    "arrondissement": 8
  },
  {
    "nom": "37 Rue Sainte-Croix de la Bretonnerie 75004 Paris",
    "lat": 48.858505,
    "lon": 2.3543751,
    "arrondissement": 4
  },
  {
    "nom": "29 Rue Cotentin 75015 Paris",
    "lat": 48.838547,
    "lon": 2.312675,
    "arrondissement": 15
  },
  {
    "nom": "13 Rue Ernest Psichari 75007 Paris",
    "lat": 48.85617,
    "lon": 2.308076,
    "arrondissement": 7
  },
  {
    "nom": "6 Avenue de la Porte Pouchet 75017 Paris",
    "lat": 48.897976,
    "lon": 2.323452,
    "arrondissement": 17
  },
  {
    "nom": "56 Rue la Fayette 75009 Paris",
    "lat": 48.875465,
    "lon": 2.342083,
    "arrondissement": 9
  },
  {
    "nom": "12 Rue Milton 75009 Paris",
    "lat": 48.87772,
    "lon": 2.3409176,
    "arrondissement": 9
  },
  {
    "nom": "18 Rue Perrée 75003 Paris",
    "lat": 48.86502,
    "lon": 2.360503,
    "arrondissement": 3
  },
  {
    "nom": "14 Rue Sorbier 75020 Paris",
    "lat": 48.86732,
    "lon": 2.3906963,
    "arrondissement": 20
  },
  {
    "nom": "16 Rue Sofia 75018 Paris",
    "lat": 48.885006,
    "lon": 2.3475914,
    "arrondissement": 18
  },
  {
    "nom": "155 Avenue Ledru Rollin 75011 Paris",
    "lat": 48.855328,
    "lon": 2.378338,
    "arrondissement": 11
  },
  {
    "nom": "180 Avenue Victor Hugo 75016 Paris",
    "lat": 48.865818,
    "lon": 2.2762194,
    "arrondissement": 16
  },
  {
    "nom": "87 Boulevard Beaumarchais 75003 Paris",
    "lat": 48.858967,
    "lon": 2.36738,
    "arrondissement": 3
  },
  {
    "nom": "7 Rue Danton 75006 Paris",
    "lat": 48.85246,
    "lon": 2.341483,
    "arrondissement": 6
  },
  {
    "nom": "2 Avenue Matignon 75008 Paris",
    "lat": 48.87006,
    "lon": 2.312597,
    "arrondissement": 8
  },
  {
    "nom": "13 Rue Ernest Psichari 75007 Paris",
    "lat": 48.85617,
    "lon": 2.308076,
    "arrondissement": 7
  },
  {
    "nom": "25 Rue Henri Barbusse 75005 Paris",
    "lat": 48.8415,
    "lon": 2.338973,
    "arrondissement": 5
  },
  {
    "nom": "147 Rue de Tolbiac 75013 Paris",
    "lat": 48.826084,
    "lon": 2.358049,
    "arrondissement": 13
  },
  {
    "nom": "180 Avenue Victor Hugo 75016 Paris",
    "lat": 48.865818,
    "lon": 2.2762194,
    "arrondissement": 16
  },
  {
    "nom": "16 Rue Molitor 75016 Paris",
    "lat": 48.845284,
    "lon": 2.2640333,
    "arrondissement": 16
  },
  {
    "nom": "24 Rue du Château Landon 75010 Paris",
    "lat": 48.881493,
    "lon": 2.362957,
    "arrondissement": 10
  },
  {
    "nom": "2 Rue des Eaux 75016 Paris",
    "lat": 48.85666,
    "lon": 2.2856026,
    "arrondissement": 16
  },
  {
    "nom": "82 Rue de Crimée 75019 Paris",
    "lat": 48.8824,
    "lon": 2.3866,
    "arrondissement": 19
  },
  {
    "nom": "1 Rue d'Uzès 75002 Paris",
    "lat": 48.870422,
    "lon": 2.3454537,
    "arrondissement": 2
  },
  {
    "nom": "45 Avenue Victor Hugo 75016 Paris",
    "lat": 48.871464,
    "lon": 2.289894,
    "arrondissement": 16
  },
  {
    "nom": "36 rue Claude bernard 75005 PARIS",
    "lat": 48.839592,
    "lon": 2.3480084,
    "arrondissement": 5
  },
  {
    "nom": "105 avenue de la République 75011 Paris",
    "lat": 48.86322,
    "lon": 2.3862243,
    "arrondissement": 11
  },
  {
    "nom": "26 Avenue Duquesne 75007 Paris",
    "lat": 48.851128,
    "lon": 2.3106372,
    "arrondissement": 7
  },
  {
    "nom": "13 Rue Malher 75004 Paris",
    "lat": 48.85648,
    "lon": 2.361378,
    "arrondissement": 4
  },
  {
    "nom": "4 Rue de Lobau 75004 Paris",
    "lat": 48.856796,
    "lon": 2.3538697,
    "arrondissement": 4
  },
  {
    "nom": "5 Rue Jacques Callot 75006 Paris",
    "lat": 48.855206,
    "lon": 2.337108,
    "arrondissement": 6
  },
  {
    "nom": "77 Avenue de Wagram 75017 Paris",
    "lat": 48.88003,
    "lon": 2.2995074,
    "arrondissement": 17
  },
  {
    "nom": "10 Rue jean Nicot 75007 Paris",
    "lat": 48.86113,
    "lon": 2.3069868,
    "arrondissement": 7
  },
  {
    "nom": "43 Rue du Docteur Finlay 75015 Paris",
    "lat": 48.8512,
    "lon": 2.2913,
    "arrondissement": 15
  },
  {
    "nom": "143 Avenue Émile Zola 75015 Paris",
    "lat": 48.8472,
    "lon": 2.2953,
    "arrondissement": 15
  },
  {
    "nom": "66 Rue de Rennes 75006 Paris",
    "lat": 48.852127,
    "lon": 2.331346,
    "arrondissement": 6
  },
  {
    "nom": "139 Boulevard de Grenelle 75015 Paris",
    "lat": 48.8483,
    "lon": 2.301,
    "arrondissement": 15
  },
  {
    "nom": "115 Avenue de Malakoff 75016 Paris",
    "lat": 48.8735,
    "lon": 2.2843,
    "arrondissement": 16
  },
  {
    "nom": "80 Rue François Miron 75004 Paris",
    "lat": 48.855366,
    "lon": 2.3591938,
    "arrondissement": 4
  },
  {
    "nom": "60 Avenue Victor Hugo 75016 Paris",
    "lat": 48.870342,
    "lon": 2.286851,
    "arrondissement": 16
  },
  {
    "nom": "43 Rue de Monceau 75008 Paris",
    "lat": 48.877834,
    "lon": 2.310832,
    "arrondissement": 8
  },
  {
    "nom": "122 ter Rue de Picpus 75012 Paris",
    "lat": 48.837315,
    "lon": 2.4022446,
    "arrondissement": 12
  },
  {
    "nom": "94 Avenue de Saint-Mandé 75012 Paris",
    "lat": 48.8444,
    "lon": 2.407044,
    "arrondissement": 12
  },
  {
    "nom": "7 rue Abel 75012 PARIS",
    "lat": 48.846645,
    "lon": 2.3747718,
    "arrondissement": 12
  },
  {
    "nom": "4 Rue de Lobau 75004 Paris",
    "lat": 48.856796,
    "lon": 2.3538697,
    "arrondissement": 4
  },
  {
    "nom": "4 Rue de Lobau 75004 Paris",
    "lat": 48.856796,
    "lon": 2.3538697,
    "arrondissement": 4
  },
  {
    "nom": "62 Rue Ramey 75018 Paris",
    "lat": 48.891644,
    "lon": 2.344978,
    "arrondissement": 18
  },
  {
    "nom": "47 Rue de Vouillé 75015 Paris",
    "lat": 48.83389,
    "lon": 2.3081343,
    "arrondissement": 15
  },
  {
    "nom": "143 boulevard Vincent Auriol 75013 Paris",
    "lat": 48.832825,
    "lon": 2.36241,
    "arrondissement": 13
  },
  {
    "nom": "91 Rue du Faubourg Saint-Denis 75010 Paris",
    "lat": 48.87407,
    "lon": 2.3551424,
    "arrondissement": 10
  },
  {
    "nom": "91 Rue du Faubourg Saint-Denis 75010 Paris",
    "lat": 48.87407,
    "lon": 2.3551424,
    "arrondissement": 10
  },
  {
    "nom": "104 Avenue Ledru Rollin 75011 Paris",
    "lat": 48.85189,
    "lon": 2.376434,
    "arrondissement": 11
  },
  {
    "nom": "105 Rue de Rennes 75006 Paris",
    "lat": 48.84896,
    "lon": 2.328735,
    "arrondissement": 6
  },
  {
    "nom": "15 Boulevard Mortier 75020 Paris",
    "lat": 48.8657,
    "lon": 2.4087,
    "arrondissement": 20
  },
  {
    "nom": "16 Rue de Botzaris 75019 Paris",
    "lat": 48.8769,
    "lon": 2.3812,
    "arrondissement": 19
  },
  {
    "nom": "28 Rue Championnet 75018 Paris",
    "lat": 48.8954,
    "lon": 2.35,
    "arrondissement": 18
  },
  {
    "nom": "11 Rue Marguerite Long 75017 Paris",
    "lat": 48.8914,
    "lon": 2.304,
    "arrondissement": 17
  },
  {
    "nom": "18 Rue Perrée 75003 Paris",
    "lat": 48.86502,
    "lon": 2.360503,
    "arrondissement": 3
  },
  {
    "nom": "80 Rue de Dantzig 75015 Paris",
    "lat": 48.8304,
    "lon": 2.295999,
    "arrondissement": 15
  },
  {
    "nom": "41 Rue Didot 75014 Paris",
    "lat": 48.831856,
    "lon": 2.3202972,
    "arrondissement": 14
  },
  {
    "nom": "1 Rue Boulard 75014 Paris",
    "lat": 48.834854,
    "lon": 2.3297832,
    "arrondissement": 14
  },
  {
    "nom": "31 Rue Beaurepaire 75010 Paris",
    "lat": 48.87119,
    "lon": 2.364206,
    "arrondissement": 10
  },
  {
    "nom": "24 Rue de Liège 75008 Paris",
    "lat": 48.879597,
    "lon": 2.3263307,
    "arrondissement": 8
  },
  {
    "nom": "58 Rue Monge 75005 Paris",
    "lat": 48.84443,
    "lon": 2.3522773,
    "arrondissement": 5
  },
  {
    "nom": "17 Rue Custine 75018 Paris",
    "lat": 48.88836,
    "lon": 2.3480344,
    "arrondissement": 18
  },
  {
    "nom": "171 Rue de la Convention 75015 Paris",
    "lat": 48.838314,
    "lon": 2.2943442,
    "arrondissement": 15
  },
  {
    "nom": "97 Boulevard de Port-Royal 75014 Paris",
    "lat": 48.838314,
    "lon": 2.3408663,
    "arrondissement": 14
  },
  {
    "nom": "11 Avenue Richerand 75010 Paris",
    "lat": 48.87237,
    "lon": 2.366288,
    "arrondissement": 10
  },
  {
    "nom": "2 Avenue de Taillebourg 75011 Paris",
    "lat": 48.84948,
    "lon": 2.397761,
    "arrondissement": 11
  },
  {
    "nom": "2 bis Rue Valette 75005 Paris",
    "lat": 48.848,
    "lon": 2.3469365,
    "arrondissement": 5
  },
  {
    "nom": "14 Rue Bertin Poirée 75001 Paris",
    "lat": 48.85881,
    "lon": 2.3449502,
    "arrondissement": 1
  },
  {
    "nom": "56 Rue Lacordaire 75015 Paris",
    "lat": 48.841404,
    "lon": 2.28136,
    "arrondissement": 15
  },
  {
    "nom": "56 Rue Lacordaire 75015 Paris",
    "lat": 48.841404,
    "lon": 2.28136,
    "arrondissement": 15
  },
  {
    "nom": "56 Rue Lacordaire 75015 Paris",
    "lat": 48.841404,
    "lon": 2.28136,
    "arrondissement": 15
  },
  {
    "nom": "2 Rue du Charolais 75012 Paris",
    "lat": 48.83919,
    "lon": 2.387853,
    "arrondissement": 12
  },
  {
    "nom": "1 Rue du Colonel Pierre Avia 75015 Paris",
    "lat": 48.8326,
    "lon": 2.2788854,
    "arrondissement": 15
  },
  {
    "nom": "10 Avenue du Docteur Arnold Netter 75012 Paris",
    "lat": 48.841637,
    "lon": 2.4049802,
    "arrondissement": 12
  },
  {
    "nom": "10 Avenue de Flandre 75019 Paris",
    "lat": 48.88472,
    "lon": 2.369961,
    "arrondissement": 19
  },
  {
    "nom": "2 Rue Chardon Lagache 75016 Paris",
    "lat": 48.84676,
    "lon": 2.268339,
    "arrondissement": 16
  },
  {
    "nom": "234 Rue de Tolbiac 75013 Paris",
    "lat": 48.826504,
    "lon": 2.343366,
    "arrondissement": 13
  },
  {
    "nom": "72 Rue de Rome 75008 Paris",
    "lat": 48.8807,
    "lon": 2.321369,
    "arrondissement": 8
  },
  {
    "nom": "16 Rue Bobillot 75013 Paris",
    "lat": 48.82958,
    "lon": 2.3537664,
    "arrondissement": 13
  },
  {
    "nom": "26 Boulevard Jourdan 75014 Paris",
    "lat": 48.82076,
    "lon": 2.3370783,
    "arrondissement": 14
  },
  {
    "nom": "24 Rue des Frigos 75013 Paris",
    "lat": 48.83171,
    "lon": 2.379246,
    "arrondissement": 13
  },
  {
    "nom": "25 Rue de la Plaine 75020 Paris",
    "lat": 48.85006,
    "lon": 2.4019644,
    "arrondissement": 20
  },
  {
    "nom": "42 bis Avenue Georges Mandel 75016 Paris",
    "lat": 48.864,
    "lon": 2.2806,
    "arrondissement": 16
  },
  {
    "nom": "152 Rue de Grenelle 75007 Paris",
    "lat": 48.85806,
    "lon": 2.310588,
    "arrondissement": 7
  },
  {
    "nom": "3 Rue Henard 75012 Paris",
    "lat": 48.84154,
    "lon": 2.389211,
    "arrondissement": 12
  },
  {
    "nom": "145 Rue Raymond Losserand 75014 Paris",
    "lat": 48.83126,
    "lon": 2.313088,
    "arrondissement": 14
  },
  {
    "nom": "17 Rue Caulaincourt 75018 Paris",
    "lat": 48.887253,
    "lon": 2.3330069,
    "arrondissement": 18
  },
  {
    "nom": "24 Rue de la Paix 75002 Paris",
    "lat": 48.869926,
    "lon": 2.3320835,
    "arrondissement": 2
  },
  {
    "nom": "32 Rue Broussais 75014 Paris",
    "lat": 48.82844,
    "lon": 2.336613,
    "arrondissement": 14
  },
  {
    "nom": "42 Rue Brunel 75017 Paris",
    "lat": 48.878845,
    "lon": 2.2878556,
    "arrondissement": 17
  },
  {
    "nom": "28 Rue Championnet 75018 Paris",
    "lat": 48.8954,
    "lon": 2.35,
    "arrondissement": 18
  },
  {
    "nom": "1 Rue Fernand Labori 75018 Paris",
    "lat": 48.898304,
    "lon": 2.3423252,
    "arrondissement": 18
  },
  {
    "nom": "18 rue Laborde 75008 PARIS",
    "lat": 48.87577,
    "lon": 2.320347,
    "arrondissement": 8
  },
  {
    "nom": "78 Avenue de Suffren 75015 Paris",
    "lat": 48.851833,
    "lon": 2.2997985,
    "arrondissement": 15
  },
  {
    "nom": "44 Rue Paul Barruel 75015 Paris",
    "lat": 48.837364,
    "lon": 2.3059905,
    "arrondissement": 15
  },
  {
    "nom": "94 Avenue de Saint-Mandé 75012 Paris",
    "lat": 48.8444,
    "lon": 2.407044,
    "arrondissement": 12
  },
  {
    "nom": "76 Rue de la Victoire 75009 PARIS",
    "lat": 48.875435,
    "lon": 2.332551,
    "arrondissement": 9
  },
  {
    "nom": "1-3 Av. du Général Sarrail 75016 Paris",
    "lat": 48.846973,
    "lon": 2.2558389,
    "arrondissement": 16
  },
  {
    "nom": "1 Avenue Rachel 75018 Paris",
    "lat": 48.884415,
    "lon": 2.3305461,
    "arrondissement": 18
  },
  {
    "nom": "220 Rue Marcadet 75018 Paris",
    "lat": 48.892082,
    "lon": 2.3331354,
    "arrondissement": 18
  },
  {
    "nom": "8 Rue Rémusat 75016 Paris",
    "lat": 48.847847,
    "lon": 2.272306,
    "arrondissement": 16
  },
  {
    "nom": "18 Avenue Victor Hugo 75016 Paris",
    "lat": 48.87244,
    "lon": 2.2915578,
    "arrondissement": 16
  },
  {
    "nom": "147 Rue de Tolbiac 75013 Paris",
    "lat": 48.826084,
    "lon": 2.358049,
    "arrondissement": 13
  },
  {
    "nom": "5 boulevard de Bercy 75012 Paris",
    "lat": 48.84036,
    "lon": 2.378739,
    "arrondissement": 12
  },
  {
    "nom": "120 cours de Vincennes 75012 Paris",
    "lat": 48.846306,
    "lon": 2.410751,
    "arrondissement": 12
  },
  {
    "nom": "110 Boulevard Richard Lenoir 75011 Paris",
    "lat": 48.864063,
    "lon": 2.3713984,
    "arrondissement": 11
  },
  {
    "nom": "2 Rue Péguy 75006 Paris",
    "lat": 48.843006,
    "lon": 2.3280363,
    "arrondissement": 6
  },
  {
    "nom": "20 Boulevard Émile Augier 75016 Paris",
    "lat": 48.8603,
    "lon": 2.274,
    "arrondissement": 16
  },
  {
    "nom": "4 Rue Beaugrenelle 75015 Paris",
    "lat": 48.8479,
    "lon": 2.2847,
    "arrondissement": 15
  },
  {
    "nom": "108 Rue Balard 75015 Paris",
    "lat": 48.8373,
    "lon": 2.2787,
    "arrondissement": 15
  },
  {
    "nom": "16 Rue de l'Arrivée 75015 Paris",
    "lat": 48.8432,
    "lon": 2.3217,
    "arrondissement": 15
  },
  {
    "nom": "1 Rue Jean-François Lépine 75018 Paris",
    "lat": 48.8861,
    "lon": 2.3591,
    "arrondissement": 18
  },
  {
    "nom": "1 Rue Jean-François Lépine 75018 Paris",
    "lat": 48.8861,
    "lon": 2.3591,
    "arrondissement": 18
  },
  {
    "nom": "12 Rue Gouthière 75013 Paris",
    "lat": 48.820423,
    "lon": 2.3512075,
    "arrondissement": 13
  },
  {
    "nom": "13 Rue Ernest Psichari 75007 Paris",
    "lat": 48.85617,
    "lon": 2.308076,
    "arrondissement": 7
  },
  {
    "nom": "19 Rue Dalayrac 75002 Paris",
    "lat": 48.86818,
    "lon": 2.335097,
    "arrondissement": 2
  },
  {
    "nom": "76 Boulevard de la Tour-Maubourg 75007 Paris",
    "lat": 48.856014,
    "lon": 2.3097644,
    "arrondissement": 7
  },
  {
    "nom": "76 Boulevard de la Tour-Maubourg 75007 Paris",
    "lat": 48.856014,
    "lon": 2.3097644,
    "arrondissement": 7
  },
  {
    "nom": "112 Avenue de Suffren 75015 Paris",
    "lat": 48.848923,
    "lon": 2.3045475,
    "arrondissement": 15
  },
  {
    "nom": "11 Avenue Richerand 75010 Paris",
    "lat": 48.87237,
    "lon": 2.366288,
    "arrondissement": 10
  },
  {
    "nom": "5 Rue de Bellechasse 75007 Paris",
    "lat": 48.85988,
    "lon": 2.3245049,
    "arrondissement": 7
  },
  {
    "nom": "17 Place du Panthéon 75005 Paris",
    "lat": 48.845715,
    "lon": 2.345032,
    "arrondissement": 5
  },
  {
    "nom": "2 Rue du Charolais 75012 Paris",
    "lat": 48.83919,
    "lon": 2.387853,
    "arrondissement": 12
  },
  {
    "nom": "28 Avenue de Niel 75017 Paris",
    "lat": 48.88103,
    "lon": 2.2956283,
    "arrondissement": 17
  },
  {
    "nom": "75 Rue de la Convention 75015 Paris",
    "lat": 48.842567,
    "lon": 2.2848904,
    "arrondissement": 15
  },
  {
    "nom": "162 Rue de la Roquette 75011 Paris",
    "lat": 48.858604,
    "lon": 2.384125,
    "arrondissement": 11
  },
  {
    "nom": "44 Quai Henri IV 75004 Paris",
    "lat": 48.85023,
    "lon": 2.3615763,
    "arrondissement": 4
  },
  {
    "nom": "42 Rue Jean de la Fontaine 75016 Paris",
    "lat": 48.850998,
    "lon": 2.2719011,
    "arrondissement": 16
  },
  {
    "nom": "2 Rue des Eaux 75016 Paris",
    "lat": 48.85666,
    "lon": 2.2856026,
    "arrondissement": 16
  },
  {
    "nom": "18 Avenue Victor Hugo 75016 Paris",
    "lat": 48.87244,
    "lon": 2.2915578,
    "arrondissement": 16
  },
  {
    "nom": "98 Rue de Turenne 75003 Paris",
    "lat": 48.86235,
    "lon": 2.3648512,
    "arrondissement": 3
  },
  {
    "nom": "15 Rue Olier 75015 Paris",
    "lat": 48.835197,
    "lon": 2.2914295,
    "arrondissement": 15
  },
  {
    "nom": "10 Avenue de la Porte d'Aubervilliers 75019 Paris",
    "lat": 48.899334,
    "lon": 2.371162,
    "arrondissement": 19
  },
  {
    "nom": "62 Rue Ramey 75018 Paris",
    "lat": 48.891644,
    "lon": 2.344978,
    "arrondissement": 18
  },
  {
    "nom": "70 Avenue Henri Martin 75016 Paris",
    "lat": 48.8646,
    "lon": 2.2754,
    "arrondissement": 16
  },
  {
    "nom": "42 Rue Brunel 75017 Paris",
    "lat": 48.878845,
    "lon": 2.2878556,
    "arrondissement": 17
  },
  {
    "nom": "2 Avenue de Taillebourg 75011 Paris",
    "lat": 48.84948,
    "lon": 2.397761,
    "arrondissement": 11
  },
  {
    "nom": "120 Rue Ordener 75018 Paris",
    "lat": 48.893276,
    "lon": 2.3395,
    "arrondissement": 18
  },
  {
    "nom": "157 Boulevard Murat 75016 Paris",
    "lat": 48.8379,
    "lon": 2.2628,
    "arrondissement": 16
  },
  {
    "nom": "5 Rue Docteur Goujon 75012 Paris",
    "lat": 48.839947,
    "lon": 2.397822,
    "arrondissement": 12
  },
  {
    "nom": "112 Avenue de Suffren 75015 Paris",
    "lat": 48.848923,
    "lon": 2.3045475,
    "arrondissement": 15
  },
  {
    "nom": "17 Place de la République 75003 Paris",
    "lat": 48.86745,
    "lon": 2.3630073,
    "arrondissement": 3
  },
  {
    "nom": "69 Rue de Courcelles 75008 Paris",
    "lat": 48.87835,
    "lon": 2.3044934,
    "arrondissement": 8
  },
  {
    "nom": "55 Rue d'Auteuil 75016 Paris",
    "lat": 48.8478,
    "lon": 2.2636,
    "arrondissement": 16
  },
  {
    "nom": "5 Rue de la Chaussée d'Antin 75009 Paris",
    "lat": 48.871643,
    "lon": 2.3338861,
    "arrondissement": 9
  },
  {
    "nom": "53 Avenue de Versailles 75016 Paris",
    "lat": 48.847862,
    "lon": 2.2745266,
    "arrondissement": 16
  },
  {
    "nom": "1 Rue Dante 75005 Paris",
    "lat": 48.851387,
    "lon": 2.3472476,
    "arrondissement": 5
  },
  {
    "nom": "2 Rue Péguy 75006 Paris",
    "lat": 48.843006,
    "lon": 2.3280363,
    "arrondissement": 6
  },
  {
    "nom": "158 Boulevard de Charonne 75020 Paris",
    "lat": 48.856915,
    "lon": 2.3941433,
    "arrondissement": 20
  },
  {
    "nom": "2 Rue Neuve Saint-Pierre 75004 Paris",
    "lat": 48.853573,
    "lon": 2.363958,
    "arrondissement": 4
  },
  {
    "nom": "76 Rue Botzaris 75019 Paris",
    "lat": 48.879482,
    "lon": 2.388647,
    "arrondissement": 19
  },
  {
    "nom": "19 Rue Tronchet 75008 Paris",
    "lat": 48.87236,
    "lon": 2.326167,
    "arrondissement": 8
  },
  {
    "nom": "56 Rue des Plantes 75014 Paris",
    "lat": 48.82837,
    "lon": 2.3216963,
    "arrondissement": 14
  },
  {
    "nom": "22 Place Charles Fillion 75017 Paris",
    "lat": 48.888447,
    "lon": 2.3160603,
    "arrondissement": 17
  },
  {
    "nom": "55 Rue d'Auteuil 75016 Paris",
    "lat": 48.8478,
    "lon": 2.2636,
    "arrondissement": 16
  },
  {
    "nom": "109 Avenue Félix Faure 75015 Paris",
    "lat": 48.83892,
    "lon": 2.282485,
    "arrondissement": 15
  },
  {
    "nom": "26 Rue Léon Frot 75011 Paris",
    "lat": 48.854664,
    "lon": 2.387548,
    "arrondissement": 11
  },
  {
    "nom": "73 Boulevard Diderot 75012 Paris",
    "lat": 48.84733,
    "lon": 2.3856323,
    "arrondissement": 12
  },
  {
    "nom": "19 Rue Leblanc 75015 Paris",
    "lat": 48.83984,
    "lon": 2.273328,
    "arrondissement": 15
  },
  {
    "nom": "210 Rue de Courcelles 75017 Paris",
    "lat": 48.8867,
    "lon": 2.2955,
    "arrondissement": 17
  },
  {
    "nom": "63 Avenue d'Iéna 75016 Paris",
    "lat": 48.87133,
    "lon": 2.295196,
    "arrondissement": 16
  },
  {
    "nom": "2 Rue Mayet 75006 Paris",
    "lat": 48.84737,
    "lon": 2.3182092,
    "arrondissement": 6
  },
  {
    "nom": "41 Boulevard Pasteur 75015 Paris",
    "lat": 48.842644,
    "lon": 2.313266,
    "arrondissement": 15
  },
  {
    "nom": "10 Rue Villiot 75012 Paris",
    "lat": 48.841206,
    "lon": 2.3748827,
    "arrondissement": 12
  },
  {
    "nom": "2 Rue Abel 75012 Paris",
    "lat": 48.846294,
    "lon": 2.374877,
    "arrondissement": 12
  },
  {
    "nom": "101 Avenue Henri Martin 75016 Paris",
    "lat": 48.8636,
    "lon": 2.27153,
    "arrondissement": 16
  },
  {
    "nom": "44 Rue Paul Barruel 75015 Paris",
    "lat": 48.837364,
    "lon": 2.3059905,
    "arrondissement": 15
  },
  {
    "nom": "9 Place du Colonel Fabien 75010 Paris",
    "lat": 48.878098,
    "lon": 2.3696816,
    "arrondissement": 10
  },
  {
    "nom": "2 Rue du Buisson Saint Louis 75010 Paris",
    "lat": 48.87179,
    "lon": 2.372482,
    "arrondissement": 10
  },
  {
    "nom": "36 Rue Etienne Marcel 75002 Paris",
    "lat": 48.86502,
    "lon": 2.344388,
    "arrondissement": 2
  },
  {
    "nom": "47 Rue Navier 75017 Paris",
    "lat": 48.895756,
    "lon": 2.3242009,
    "arrondissement": 17
  },
  {
    "nom": "86 Rue Pelleport 75020 Paris",
    "lat": 48.867603,
    "lon": 2.4021437,
    "arrondissement": 20
  },
  {
    "nom": "1 Rue Navier 75017 Paris",
    "lat": 48.8955,
    "lon": 2.3283,
    "arrondissement": 18
  },
  {
    "nom": "16 Rue Sofia 75018 Paris",
    "lat": 48.885006,
    "lon": 2.3475914,
    "arrondissement": 18
  },
  {
    "nom": "33 Rue du Ranelagh 75016 Paris",
    "lat": 48.853813,
    "lon": 2.2768772,
    "arrondissement": 16
  },
  {
    "nom": "15 Rue Olier 75015 Paris",
    "lat": 48.835197,
    "lon": 2.2914295,
    "arrondissement": 15
  },
  {
    "nom": "8 Avenue de la Porte de Montrouge 75014 Paris",
    "lat": 48.82306,
    "lon": 2.322823,
    "arrondissement": 14
  },
  {
    "nom": "2 Rue Marie-Andrée Lagroua Weil-Halle 75013 Paris",
    "lat": 48.82764,
    "lon": 2.3810866,
    "arrondissement": 13
  },
  {
    "nom": "26 Rue Claude Decaen 75012 Paris",
    "lat": 48.83519,
    "lon": 2.4002905,
    "arrondissement": 12
  },
  {
    "nom": "16 Rue de Botzaris 75019 Paris",
    "lat": 48.8769,
    "lon": 2.3812,
    "arrondissement": 19
  },
  {
    "nom": "16 Rue de Botzaris 75019 Paris",
    "lat": 48.8769,
    "lon": 2.3812,
    "arrondissement": 19
  },
  {
    "nom": "5 Avenue de la République 75011 Paris",
    "lat": 48.86661,
    "lon": 2.36784,
    "arrondissement": 11
  },
  {
    "nom": "31 Rue Beaurepaire 75010 Paris",
    "lat": 48.87119,
    "lon": 2.364206,
    "arrondissement": 10
  },
  {
    "nom": "6 Avenue de la Porte Pouchet 75017 Paris",
    "lat": 48.897976,
    "lon": 2.323452,
    "arrondissement": 17
  },
  {
    "nom": "63 Avenue d'Iéna 75016 Paris",
    "lat": 48.87133,
    "lon": 2.295196,
    "arrondissement": 16
  },
  {
    "nom": "192 Rue de la Croix Nivert 75015 Paris",
    "lat": 48.838886,
    "lon": 2.2892983,
    "arrondissement": 15
  },
  {
    "nom": "3 Rue de Bérite 75006 Paris",
    "lat": 48.847874,
    "lon": 2.3239782,
    "arrondissement": 6
  },
  {
    "nom": "2 Rue Sibour 75010 Paris",
    "lat": 48.875076,
    "lon": 2.3587236,
    "arrondissement": 10
  },
  {
    "nom": "13 Avenue du Père Lachaise 75020 Paris",
    "lat": 48.86424,
    "lon": 2.397724,
    "arrondissement": 20
  },
  {
    "nom": "55 Rue Desnouettes 75015 Paris",
    "lat": 48.83571,
    "lon": 2.286912,
    "arrondissement": 15
  },
  {
    "nom": "21 Rue Berbier du Mets 75013 Paris",
    "lat": 48.8355,
    "lon": 2.34965,
    "arrondissement": 13
  },
  {
    "nom": "3 Avenue Claude Régaud 75013 Paris",
    "lat": 48.822433,
    "lon": 2.372971,
    "arrondissement": 13
  },
  {
    "nom": "53 Rue Baron le Roy 75012 Paris",
    "lat": 48.833603,
    "lon": 2.389173,
    "arrondissement": 12
  },
  {
    "nom": "66 Cours de Vincennes 75012 Paris",
    "lat": 48.847218,
    "lon": 2.404712,
    "arrondissement": 12
  },
  {
    "nom": "4 Quai du Marché Neuf 75001 Paris",
    "lat": 48.854057,
    "lon": 2.34556,
    "arrondissement": 4
  },
  {
    "nom": "36 Quai de Béthune 75004 Paris",
    "lat": 48.851254,
    "lon": 2.3564553,
    "arrondissement": 4
  },
  {
    "nom": "5 bis Rue du Capitaine Ferber 75020 Paris",
    "lat": 48.86536,
    "lon": 2.405207,
    "arrondissement": 20
  },
  {
    "nom": "1 Avenue Rachel 75018 Paris",
    "lat": 48.884415,
    "lon": 2.3305461,
    "arrondissement": 18
  },
  {
    "nom": "7 Boulevard des Capucines 75002 Paris",
    "lat": 48.87063,
    "lon": 2.33321,
    "arrondissement": 2
  },
  {
    "nom": "23 Rue du Départ 75014 Paris",
    "lat": 48.842175,
    "lon": 2.323305,
    "arrondissement": 14
  },
  {
    "nom": "1 Rue Manin 75019 Paris",
    "lat": 48.8766,
    "lon": 2.3790176,
    "arrondissement": 19
  },
  {
    "nom": "44 Rue Étienne Marcel 75002 Paris",
    "lat": 48.86531,
    "lon": 2.343436,
    "arrondissement": 2
  },
  {
    "nom": "91 Rue du Faubourg Saint-Denis 75010 Paris",
    "lat": 48.87407,
    "lon": 2.3551424,
    "arrondissement": 10
  },
  {
    "nom": "43 Rue de Monceau 75008 Paris",
    "lat": 48.877834,
    "lon": 2.310832,
    "arrondissement": 8
  },
  {
    "nom": "98 Rue de Turenne 75003 Paris",
    "lat": 48.86235,
    "lon": 2.3648512,
    "arrondissement": 3
  },
  {
    "nom": "2 Rue Georges Berger 75017 Paris",
    "lat": 48.8809,
    "lon": 2.3099,
    "arrondissement": 17
  },
  {
    "nom": "47 Rue Didot 75014 Paris",
    "lat": 48.831448,
    "lon": 2.320052,
    "arrondissement": 14
  },
  {
    "nom": "42 bis Avenue Georges Mandel 75016 Paris",
    "lat": 48.864,
    "lon": 2.2806,
    "arrondissement": 16
  },
  {
    "nom": "2 Rue de Martignac 75007 Paris",
    "lat": 48.859367,
    "lon": 2.3195393,
    "arrondissement": 7
  },
  {
    "nom": "26 Boulevard Jourdan 75014 Paris",
    "lat": 48.82076,
    "lon": 2.3370783,
    "arrondissement": 14
  },
  {
    "nom": "43 Rue Vivienne 75002 Paris",
    "lat": 48.870564,
    "lon": 2.3408933,
    "arrondissement": 2
  },
  {
    "nom": "6 Rue Guébriant 75020 Paris",
    "lat": 48.8731,
    "lon": 2.4092,
    "arrondissement": 20
  },
  {
    "nom": "162 Rue de la Roquette 75011 Paris",
    "lat": 48.858604,
    "lon": 2.384125,
    "arrondissement": 11
  },
  {
    "nom": "4 Avenue Gourgaud 75017 Paris",
    "lat": 48.88569,
    "lon": 2.297463,
    "arrondissement": 17
  },
  {
    "nom": "4 Rue Beaugrenelle 75015 Paris",
    "lat": 48.8479,
    "lon": 2.2847,
    "arrondissement": 15
  },
  {
    "nom": "31 Rue Beaurepaire 75010 Paris",
    "lat": 48.87119,
    "lon": 2.364206,
    "arrondissement": 10
  },
  {
    "nom": "188 boulevard Saint -Germain 75007 Paris",
    "lat": 48.85461,
    "lon": 2.329982,
    "arrondissement": 7
  },
  {
    "nom": "43 Rue du Docteur Finlay 75015 Paris",
    "lat": 48.8512,
    "lon": 2.2913,
    "arrondissement": 15
  },
  {
    "nom": "1 Rue Manin 75019 Paris",
    "lat": 48.8766,
    "lon": 2.3790176,
    "arrondissement": 19
  },
  {
    "nom": "61 Avenue de Flandre 75019 Paris",
    "lat": 48.888195,
    "lon": 2.37308,
    "arrondissement": 19
  },
  {
    "nom": "8 Quai du Marché Neuf 75004 Paris",
    "lat": 48.8542,
    "lon": 2.345341,
    "arrondissement": 4
  },
  {
    "nom": "41 Boulevard Pasteur 75015 Paris",
    "lat": 48.842644,
    "lon": 2.313266,
    "arrondissement": 15
  },
  {
    "nom": "21 Rue Miollis 75015 Paris",
    "lat": 48.845806,
    "lon": 2.3038075,
    "arrondissement": 15
  },
  {
    "nom": "37 Rue Sainte-Croix de la Bretonnerie 75004 Paris",
    "lat": 48.858505,
    "lon": 2.3543751,
    "arrondissement": 4
  },
  {
    "nom": "73 Rue de Rome 75008 Paris",
    "lat": 48.881832,
    "lon": 2.32056,
    "arrondissement": 8
  },
  {
    "nom": "36 Rue du Temple 75004 Paris",
    "lat": 48.85967,
    "lon": 2.3542652,
    "arrondissement": 4
  },
  {
    "nom": "60 Avenue Victor Hugo 75016 Paris",
    "lat": 48.870342,
    "lon": 2.286851,
    "arrondissement": 16
  },
  {
    "nom": "51 Avenue Raymond Poincaré 75016 Paris",
    "lat": 48.86697,
    "lon": 2.2858796,
    "arrondissement": 16
  },
  {
    "nom": "28 Avenue Carnot 75017 Paris",
    "lat": 48.87683,
    "lon": 2.2928,
    "arrondissement": 17
  },
  {
    "nom": "170 boulevard Pereire 75017 Paris",
    "lat": 48.882423,
    "lon": 2.2922037,
    "arrondissement": 17
  },
  {
    "nom": "20 Boulevard de la Bastille 75012 Paris",
    "lat": 48.84837,
    "lon": 2.367915,
    "arrondissement": 12
  },
  {
    "nom": "1 Rue Boulard 75014 Paris",
    "lat": 48.834854,
    "lon": 2.3297832,
    "arrondissement": 14
  },
  {
    "nom": "9 Rue Adolphe Mille 75019 Paris",
    "lat": 48.88842,
    "lon": 2.388149,
    "arrondissement": 19
  },
  {
    "nom": "26 Rue Claude Decaen 75012 Paris",
    "lat": 48.83519,
    "lon": 2.4002905,
    "arrondissement": 12
  },
  {
    "nom": "42 bis Avenue Georges Mandel 75016 Paris",
    "lat": 48.864,
    "lon": 2.2806,
    "arrondissement": 16
  },
  {
    "nom": "21 Rue Miollis 75015 Paris",
    "lat": 48.845806,
    "lon": 2.3038075,
    "arrondissement": 15
  },
  {
    "nom": "3 Saint Roch 75001 Paris",
    "lat": 48.864292,
    "lon": 2.3314855,
    "arrondissement": 1
  },
  {
    "nom": "188 boulevard Saint -Germain 75007 Paris",
    "lat": 48.85461,
    "lon": 2.329982,
    "arrondissement": 7
  },
  {
    "nom": "16 Place des États-Unis 75016 Paris",
    "lat": 48.8685,
    "lon": 2.2927,
    "arrondissement": 16
  },
  {
    "nom": "25 Rue Constantine 75007 Paris",
    "lat": 48.858727,
    "lon": 2.314834,
    "arrondissement": 7
  },
  {
    "nom": "45 Avenue de la Bourdonnais 75007 Paris",
    "lat": 48.85807,
    "lon": 2.299582,
    "arrondissement": 7
  },
  {
    "nom": "2 Rue de Fleurus 75006 Paris",
    "lat": 48.847107,
    "lon": 2.332121,
    "arrondissement": 6
  },
  {
    "nom": "137 Rue de la Pompe 75016 Paris",
    "lat": 48.867313,
    "lon": 2.280347,
    "arrondissement": 16
  },
  {
    "nom": "10 Rue de la Fédération 75015 Paris",
    "lat": 48.85482,
    "lon": 2.2904053,
    "arrondissement": 15
  },
  {
    "nom": "2 square Tolstoï 75016 Paris",
    "lat": 48.8531,
    "lon": 2.261698,
    "arrondissement": 16
  },
  {
    "nom": "2 Rue Pétrarque 75016 Paris",
    "lat": 48.861294,
    "lon": 2.28423,
    "arrondissement": 16
  },
  {
    "nom": "26 Place Etienne Pernet 75015 Paris",
    "lat": 48.842594,
    "lon": 2.2920513,
    "arrondissement": 15
  },
  {
    "nom": "5 Place du Commerce 75015 Paris",
    "lat": 48.84545,
    "lon": 2.292136,
    "arrondissement": 15
  },
  {
    "nom": "15 Rue Rocroy 75010 Paris",
    "lat": 48.880123,
    "lon": 2.3509617,
    "arrondissement": 10
  },
  {
    "nom": "38 Rue François 1er 75008 Paris",
    "lat": 48.86821,
    "lon": 2.3046348,
    "arrondissement": 8
  },
  {
    "nom": "25 Rue de la Plaine 75020 Paris",
    "lat": 48.85006,
    "lon": 2.4019644,
    "arrondissement": 20
  },
  {
    "nom": "28 Avenue de Niel 75017 Paris",
    "lat": 48.88103,
    "lon": 2.2956283,
    "arrondissement": 17
  },
  {
    "nom": "48 Rue Henri Huchard 75018 Paris",
    "lat": 48.89919,
    "lon": 2.330375,
    "arrondissement": 18
  },
  {
    "nom": "2 Rue Mayet 75006 Paris",
    "lat": 48.84737,
    "lon": 2.3182092,
    "arrondissement": 6
  },
  {
    "nom": "251 Rue de Charenton 75012 Paris",
    "lat": 48.83641,
    "lon": 2.3922555,
    "arrondissement": 12
  },
  {
    "nom": "54 Rue David d'Angers 75019 Paris",
    "lat": 48.8818,
    "lon": 2.3938,
    "arrondissement": 19
  },
  {
    "nom": "68 Avenue Mozart 75016 Paris",
    "lat": 48.8534,
    "lon": 2.2685,
    "arrondissement": 16
  },
  {
    "nom": "162 Rue Championnet 75018 Paris",
    "lat": 48.8949,
    "lon": 2.3355,
    "arrondissement": 18
  },
  {
    "nom": "18 rue Laborde 75008 PARIS",
    "lat": 48.87577,
    "lon": 2.320347,
    "arrondissement": 8
  },
  {
    "nom": "16 Rue Claude Bernard 75005 Paris",
    "lat": 48.839775,
    "lon": 2.3476574,
    "arrondissement": 5
  },
  {
    "nom": "6 Avenue des Ternes 75017 Paris",
    "lat": 48.878258,
    "lon": 2.2967632,
    "arrondissement": 17
  },
  {
    "nom": "60 Boulevard Sérurier 75019 Paris",
    "lat": 48.88101,
    "lon": 2.3978,
    "arrondissement": 19
  },
  {
    "nom": "73 Avenue des Ternes 75017 Paris",
    "lat": 48.879463,
    "lon": 2.2899947,
    "arrondissement": 17
  },
  {
    "nom": "1 Rue Pierre Brossolette 75005 Paris",
    "lat": 48.84196,
    "lon": 2.347262,
    "arrondissement": 5
  },
  {
    "nom": "4 Avenue Secrétan 75019 Paris",
    "lat": 48.882175,
    "lon": 2.370891,
    "arrondissement": 19
  },
  {
    "nom": "6 boulevard Haussmann 75009 Paris",
    "lat": 48.87232,
    "lon": 2.338776,
    "arrondissement": 9
  },
  {
    "nom": "11 Rue François de Neufchateau 75011 Paris",
    "lat": 48.85615,
    "lon": 2.3825247,
    "arrondissement": 11
  },
  {
    "nom": "11 Rue François de Neufchateau 75011 Paris",
    "lat": 48.85615,
    "lon": 2.3825247,
    "arrondissement": 11
  },
  {
    "nom": "2 Rue du Buisson Saint Louis 75010 Paris",
    "lat": 48.87179,
    "lon": 2.372482,
    "arrondissement": 10
  },
  {
    "nom": "4 Avenue Parmentier 75011 Paris",
    "lat": 48.85895,
    "lon": 2.379874,
    "arrondissement": 11
  },
  {
    "nom": "227 Avenue Gambetta 75020 Paris",
    "lat": 48.874134,
    "lon": 2.405196,
    "arrondissement": 20
  },
  {
    "nom": "72 Avenue Paul Doumer 75016 Paris",
    "lat": 48.859756,
    "lon": 2.278694,
    "arrondissement": 16
  },
  {
    "nom": "8 Avenue de Choisy 75013 Paris",
    "lat": 48.82056,
    "lon": 2.3643334,
    "arrondissement": 13
  },
  {
    "nom": "1 Rue Croulebarbe 75013 Paris",
    "lat": 48.834526,
    "lon": 2.353056,
    "arrondissement": 13
  },
  {
    "nom": "16 Rue Claude Bernard 75005 Paris",
    "lat": 48.839775,
    "lon": 2.3476574,
    "arrondissement": 5
  },
  {
    "nom": "33 Rue d'Alésia 75014 Paris",
    "lat": 48.827686,
    "lon": 2.3330016,
    "arrondissement": 14
  },
  {
    "nom": "36 Rue Claude Bernard 75005 PARIS",
    "lat": 48.839725,
    "lon": 2.3480263,
    "arrondissement": 5
  },
  {
    "nom": "73 Avenue des Ternes 75017 Paris",
    "lat": 48.879463,
    "lon": 2.2899947,
    "arrondissement": 17
  },
  {
    "nom": "116 Rue Réaumur 75002 Paris",
    "lat": 48.86781,
    "lon": 2.34525,
    "arrondissement": 2
  },
  {
    "nom": "143 Rue La Fayette 75010 Paris",
    "lat": 48.879135,
    "lon": 2.3560476,
    "arrondissement": 10
  },
  {
    "nom": "3 Avenue Dutuit 75008 Paris",
    "lat": 48.8655,
    "lon": 2.315463,
    "arrondissement": 8
  },
  {
    "nom": "4 Place Saint-Gervais 75004 Paris",
    "lat": 48.856052,
    "lon": 2.3537521,
    "arrondissement": 4
  },
  {
    "nom": "116 Rue Réaumur 75002 Paris",
    "lat": 48.86781,
    "lon": 2.34525,
    "arrondissement": 2
  },
  {
    "nom": "15 Rue Olier 75015 Paris",
    "lat": 48.835197,
    "lon": 2.2914295,
    "arrondissement": 15
  },
  {
    "nom": "137 Rue la Fayette 75010 Paris",
    "lat": 48.8789,
    "lon": 2.355064,
    "arrondissement": 10
  },
  {
    "nom": "17 Avenue Victoria 75001 Paris",
    "lat": 48.85788,
    "lon": 2.34681,
    "arrondissement": 1
  },
  {
    "nom": "16 Rue Claude Bernard 75005 Paris",
    "lat": 48.839775,
    "lon": 2.3476574,
    "arrondissement": 5
  },
  {
    "nom": "54 Boulevard Sérurier 75019 Paris",
    "lat": 48.88042,
    "lon": 2.398476,
    "arrondissement": 19
  },
  {
    "nom": "1 Rue Croulebarbe 75013 Paris",
    "lat": 48.834526,
    "lon": 2.353056,
    "arrondissement": 13
  },
  {
    "nom": "2 Rue de Rungis 75013 Paris",
    "lat": 48.82195,
    "lon": 2.345853,
    "arrondissement": 13
  },
  {
    "nom": "1 Rue Jules Lefèbvre 75009 Paris",
    "lat": 48.880447,
    "lon": 2.3283632,
    "arrondissement": 9
  },
  {
    "nom": "72 Avenue Paul Doumer 75016 Paris",
    "lat": 48.859756,
    "lon": 2.278694,
    "arrondissement": 16
  },
  {
    "nom": "73 Avenue des Ternes 75017 Paris",
    "lat": 48.879463,
    "lon": 2.2899947,
    "arrondissement": 17
  },
  {
    "nom": "18 rue Laborde 75008 PARIS",
    "lat": 48.87577,
    "lon": 2.320347,
    "arrondissement": 8
  },
  {
    "nom": "66 Rue de la Jonquière 75017 Paris",
    "lat": 48.894165,
    "lon": 2.3211582,
    "arrondissement": 17
  },
  {
    "nom": "5 Rue Jules Romains 75020 Paris",
    "lat": 48.872906,
    "lon": 2.378283,
    "arrondissement": 19
  },
  {
    "nom": "1 Rue Jules Lefèbvre 75009 Paris",
    "lat": 48.880447,
    "lon": 2.3283632,
    "arrondissement": 9
  },
  {
    "nom": "107 Quai de Valmy 75010 Paris",
    "lat": 48.87484,
    "lon": 2.36289,
    "arrondissement": 10
  },
  {
    "nom": "4 Place Armand Carrel 75019 Paris",
    "lat": 48.882793,
    "lon": 2.382705,
    "arrondissement": 19
  },
  {
    "nom": "11 Rue François de Neufchateau 75011 Paris",
    "lat": 48.85615,
    "lon": 2.3825247,
    "arrondissement": 11
  },
  {
    "nom": "66 Rue d'Astorg 75008 Paris",
    "lat": 48.872833,
    "lon": 2.3193886,
    "arrondissement": 8
  },
  {
    "nom": "4 Place Armand Carrel 75019 Paris",
    "lat": 48.882793,
    "lon": 2.382705,
    "arrondissement": 19
  },
  {
    "nom": "16 Rue Claude Bernard 75005 Paris",
    "lat": 48.839775,
    "lon": 2.3476574,
    "arrondissement": 5
  },
  {
    "nom": "26 Boulevard Jourdan 75014 Paris",
    "lat": 48.82076,
    "lon": 2.3370783,
    "arrondissement": 14
  },
  {
    "nom": "5 Rue de Bellechasse 75007 Paris",
    "lat": 48.85988,
    "lon": 2.3245049,
    "arrondissement": 7
  },
  {
    "nom": "97 Boulevard de Port-Royal 75014 Paris",
    "lat": 48.838314,
    "lon": 2.3408663,
    "arrondissement": 14
  },
  {
    "nom": "17 Place de la République 75003 Paris",
    "lat": 48.86745,
    "lon": 2.3630073,
    "arrondissement": 3
  },
  {
    "nom": "3 Rue de Bérite 75006 Paris",
    "lat": 48.847874,
    "lon": 2.3239782,
    "arrondissement": 6
  },
  {
    "nom": "180 Avenue Victor Hugo 75016 Paris",
    "lat": 48.865818,
    "lon": 2.2762194,
    "arrondissement": 16
  },
  {
    "nom": "3 Rue Henard 75012 Paris",
    "lat": 48.84154,
    "lon": 2.389211,
    "arrondissement": 12
  },
  {
    "nom": "1-3 Av. du Général Sarrail 75016 Paris",
    "lat": 48.846973,
    "lon": 2.2558389,
    "arrondissement": 16
  },
  {
    "nom": "48 Rue Henri Huchard 75018 Paris",
    "lat": 48.89919,
    "lon": 2.330375,
    "arrondissement": 18
  },
  {
    "nom": "28 Avenue Carnot 75017 Paris",
    "lat": 48.87683,
    "lon": 2.2928,
    "arrondissement": 17
  },
  {
    "nom": "26 Avenue Duquesne 75007 Paris",
    "lat": 48.851128,
    "lon": 2.3106372,
    "arrondissement": 7
  },
  {
    "nom": "7 Rue de Pommard 75012 Paris",
    "lat": 48.835518,
    "lon": 2.3850355,
    "arrondissement": 12
  },
  {
    "nom": "20 Avenue Raphaël 75016 Paris",
    "lat": 48.85926,
    "lon": 2.267881,
    "arrondissement": 16
  },
  {
    "nom": "25 Rue Henri Barbusse 75005 Paris",
    "lat": 48.8415,
    "lon": 2.338973,
    "arrondissement": 5
  },
  {
    "nom": "171 Rue de la Convention 75015 Paris",
    "lat": 48.838314,
    "lon": 2.2943442,
    "arrondissement": 15
  },
  {
    "nom": "9 Boulevard Bourdon 75004 Paris",
    "lat": 48.848423,
    "lon": 2.366004,
    "arrondissement": 4
  },
  {
    "nom": "6 Avenue de la Porte Pouchet 75017 Paris",
    "lat": 48.897976,
    "lon": 2.323452,
    "arrondissement": 17
  },
  {
    "nom": "4 Rue Changarnier 75012 Paris",
    "lat": 48.845264,
    "lon": 2.411238,
    "arrondissement": 12
  },
  {
    "nom": "7 boulevard de Picpus 75012 Paris",
    "lat": 48.840687,
    "lon": 2.400428,
    "arrondissement": 12
  },
  {
    "nom": "139 Boulevard de Grenelle 75015 Paris",
    "lat": 48.8483,
    "lon": 2.301,
    "arrondissement": 15
  },
  {
    "nom": "137 Rue de la Pompe 75016 Paris",
    "lat": 48.867313,
    "lon": 2.280347,
    "arrondissement": 16
  },
  {
    "nom": "65 Avenue Emile Zola 75015 Paris",
    "lat": 48.846703,
    "lon": 2.2844167,
    "arrondissement": 15
  },
  {
    "nom": "18 Avenue Victor Hugo 75016 Paris",
    "lat": 48.87244,
    "lon": 2.2915578,
    "arrondissement": 16
  },
  {
    "nom": "36 rue Claude bernard 75005 PARIS",
    "lat": 48.839592,
    "lon": 2.3480084,
    "arrondissement": 5
  },
  {
    "nom": "2 Rue Paul Escudier 75009 Paris",
    "lat": 48.880642,
    "lon": 2.3317475,
    "arrondissement": 9
  },
  {
    "nom": "2 Rue Paul Escudier 75009 Paris",
    "lat": 48.880642,
    "lon": 2.3317475,
    "arrondissement": 9
  },
  {
    "nom": "14 Avenue Théophile Gauthier 75016 Paris",
    "lat": 48.850754,
    "lon": 2.2739246,
    "arrondissement": 16
  },
  {
    "nom": "31 Rue Beaurepaire 75010 Paris",
    "lat": 48.87119,
    "lon": 2.364206,
    "arrondissement": 10
  },
  {
    "nom": "8 Rue Rémusat 75016 Paris",
    "lat": 48.847847,
    "lon": 2.272306,
    "arrondissement": 16
  },
  {
    "nom": "69 Rue de Courcelles 75008 Paris",
    "lat": 48.87835,
    "lon": 2.3044934,
    "arrondissement": 8
  },
  {
    "nom": "69 Rue de Courcelles 75008 Paris",
    "lat": 48.87835,
    "lon": 2.3044934,
    "arrondissement": 8
  },
  {
    "nom": "37 Rue la Boétie 75008 Paris",
    "lat": 48.8737,
    "lon": 2.314663,
    "arrondissement": 8
  },
  {
    "nom": "24 Rue Monte Cristo 75020 Paris",
    "lat": 48.855225,
    "lon": 2.3984911,
    "arrondissement": 20
  },
  {
    "nom": "35 Rue Victor Massé 75009 Paris",
    "lat": 48.88109,
    "lon": 2.336666,
    "arrondissement": 9
  },
  {
    "nom": "2 Rue des Eaux 75016 Paris",
    "lat": 48.85666,
    "lon": 2.2856026,
    "arrondissement": 16
  },
  {
    "nom": "2 Rue du Commandant Lamy 75011 Paris",
    "lat": 48.85579,
    "lon": 2.374203,
    "arrondissement": 11
  },
  {
    "nom": "2 Rue du Commandant Lamy 75011 Paris",
    "lat": 48.85579,
    "lon": 2.374203,
    "arrondissement": 11
  },
  {
    "nom": "2 Rue Duroc 75007 Paris",
    "lat": 48.84828,
    "lon": 2.315725,
    "arrondissement": 7
  },
  {
    "nom": "80 Rue François Miron 75004 Paris",
    "lat": 48.855366,
    "lon": 2.3591938,
    "arrondissement": 4
  },
  {
    "nom": "150 Rue des Poissonniers 75018 Paris",
    "lat": 48.89767,
    "lon": 2.352758,
    "arrondissement": 18
  },
  {
    "nom": "9 Boulevard Edgar Quinet 75014 Paris",
    "lat": 48.841198,
    "lon": 2.323891,
    "arrondissement": 14
  },
  {
    "nom": "21 Rue Berbier du Mets 75013 Paris",
    "lat": 48.8355,
    "lon": 2.34965,
    "arrondissement": 13
  },
  {
    "nom": "2 Rue Pérignon 75007 Paris",
    "lat": 48.84793,
    "lon": 2.309952,
    "arrondissement": 7
  },
  {
    "nom": "55 Rue Monge 75005 Paris",
    "lat": 48.84477,
    "lon": 2.35242,
    "arrondissement": 5
  },
  {
    "nom": "76 Rue de la Victoire 75009 PARIS",
    "lat": 48.875435,
    "lon": 2.332551,
    "arrondissement": 9
  },
  {
    "nom": "18 rue Laborde 75008 PARIS",
    "lat": 48.87577,
    "lon": 2.320347,
    "arrondissement": 8
  },
  {
    "nom": "18 rue Laborde 75008 PARIS",
    "lat": 48.87577,
    "lon": 2.320347,
    "arrondissement": 8
  },
  {
    "nom": "18 rue Laborde 75008 PARIS",
    "lat": 48.87577,
    "lon": 2.320347,
    "arrondissement": 8
  },
  {
    "nom": "4 Rue de Lobau 75004 Paris",
    "lat": 48.856796,
    "lon": 2.3538697,
    "arrondissement": 4
  },
  {
    "nom": "4 Rue de Lobau 75004 Paris",
    "lat": 48.856796,
    "lon": 2.3538697,
    "arrondissement": 4
  },
  {
    "nom": "4 Rue de Lobau 75004 Paris",
    "lat": 48.856796,
    "lon": 2.3538697,
    "arrondissement": 4
  },
  {
    "nom": "16 Rue du Télégraphe 75020 Paris",
    "lat": 48.87233,
    "lon": 2.39951,
    "arrondissement": 20
  },
  {
    "nom": "62 Rue Ramey 75018 Paris",
    "lat": 48.891644,
    "lon": 2.344978,
    "arrondissement": 18
  },
  {
    "nom": "120 Rue Ordener 75018 Paris",
    "lat": 48.893276,
    "lon": 2.3395,
    "arrondissement": 18
  },
  {
    "nom": "51 Avenue Raymond Poincaré 75016 Paris",
    "lat": 48.86697,
    "lon": 2.2858796,
    "arrondissement": 16
  },
  {
    "nom": "47 Rue de Vouillé 75015 Paris",
    "lat": 48.83389,
    "lon": 2.3081343,
    "arrondissement": 15
  },
  {
    "nom": "8 Avenue de la Porte de Montrouge 75014 Paris",
    "lat": 48.82306,
    "lon": 2.322823,
    "arrondissement": 14
  },
  {
    "nom": "152 Rue de Grenelle 75007 Paris",
    "lat": 48.85806,
    "lon": 2.310588,
    "arrondissement": 7
  },
  {
    "nom": "6 Rue Michelet 75006 Paris",
    "lat": 48.842564,
    "lon": 2.3363895,
    "arrondissement": 6
  },
  {
    "nom": "82 Rue de Crimée 75019 Paris",
    "lat": 48.8824,
    "lon": 2.3866,
    "arrondissement": 19
  },
  {
    "nom": "67 Rue Dulong 75017 Paris",
    "lat": 48.8863,
    "lon": 2.3151,
    "arrondissement": 17
  },
  {
    "nom": "157 Boulevard Murat 75016 Paris",
    "lat": 48.8379,
    "lon": 2.2628,
    "arrondissement": 16
  },
  {
    "nom": "1 Rue Jean-François Lépine 75018 Paris",
    "lat": 48.8861,
    "lon": 2.3591,
    "arrondissement": 18
  },
  {
    "nom": "12 Rue Gouthière 75013 Paris",
    "lat": 48.820423,
    "lon": 2.3512075,
    "arrondissement": 13
  },
  {
    "nom": "1 Avenue Émile Laurent 75012 Paris",
    "lat": 48.84071,
    "lon": 2.409631,
    "arrondissement": 12
  },
  {
    "nom": "10 Rue Castagnou 75014 Paris",
    "lat": 48.83273,
    "lon": 2.32608,
    "arrondissement": 14
  },
  {
    "nom": "8 Quai du Marché Neuf 75004 Paris",
    "lat": 48.8542,
    "lon": 2.345341,
    "arrondissement": 4
  },
  {
    "nom": "8 Quai du Marché Neuf 75004 Paris",
    "lat": 48.8542,
    "lon": 2.345341,
    "arrondissement": 4
  },
  {
    "nom": "8 Quai du Marché Neuf 75004 Paris",
    "lat": 48.8542,
    "lon": 2.345341,
    "arrondissement": 4
  },
  {
    "nom": "1 Rue Jacques Duchesne 75019 Paris",
    "lat": 48.898933,
    "lon": 2.3740363,
    "arrondissement": 19
  },
  {
    "nom": "11 Rue Gerbert 75015 Paris",
    "lat": 48.839577,
    "lon": 2.2986453,
    "arrondissement": 15
  },
  {
    "nom": "61 Avenue de Flandre 75019 Paris",
    "lat": 48.888195,
    "lon": 2.37308,
    "arrondissement": 19
  },
  {
    "nom": "2 Rue du Commandant Lamy 75011 Paris",
    "lat": 48.85579,
    "lon": 2.374203,
    "arrondissement": 11
  },
  {
    "nom": "78 Avenue de Suffren 75015 Paris",
    "lat": 48.851833,
    "lon": 2.2997985,
    "arrondissement": 15
  },
  {
    "nom": "74 Rue Vasco de Gama 75015 Paris",
    "lat": 48.835426,
    "lon": 2.2851648,
    "arrondissement": 15
  },
  {
    "nom": "15 Rue Rocroy 75010 Paris",
    "lat": 48.880123,
    "lon": 2.3509617,
    "arrondissement": 10
  },
  {
    "nom": "17 Rue Caulaincourt 75018 Paris",
    "lat": 48.887253,
    "lon": 2.3330069,
    "arrondissement": 18
  },
  {
    "nom": "94 Rue Saint-Maur 75011 Paris",
    "lat": 48.865356,
    "lon": 2.377939,
    "arrondissement": 11
  },
  {
    "nom": "41 Avenue Bosquet 75007 Paris",
    "lat": 48.858295,
    "lon": 2.3041859,
    "arrondissement": 7
  },
  {
    "nom": "17 Rue Caulaincourt 75018 Paris",
    "lat": 48.887253,
    "lon": 2.3330069,
    "arrondissement": 18
  },
  {
    "nom": "24 Rue de Liège 75008 Paris",
    "lat": 48.879597,
    "lon": 2.3263307,
    "arrondissement": 8
  },
  {
    "nom": "35 Rue du Bac 75007 Paris",
    "lat": 48.857124,
    "lon": 2.327753,
    "arrondissement": 7
  },
  {
    "nom": "26 Rue Léon Frot 75011 Paris",
    "lat": 48.854664,
    "lon": 2.387548,
    "arrondissement": 11
  },
  {
    "nom": "157 Rue Jeanne D'Arc 75013 Paris",
    "lat": 48.83656,
    "lon": 2.3592348,
    "arrondissement": 13
  },
  {
    "nom": "7 boulevard de Picpus 75012 Paris",
    "lat": 48.840687,
    "lon": 2.400428,
    "arrondissement": 12
  },
  {
    "nom": "28 Rue d'Aumale 75009 Paris",
    "lat": 48.878643,
    "lon": 2.3347774,
    "arrondissement": 9
  },
  {
    "nom": "23 Quai aux Fleurs 75004 Paris",
    "lat": 48.854847,
    "lon": 2.3505278,
    "arrondissement": 4
  },
  {
    "nom": "31 boulevard Rochechouart 75009 Paris",
    "lat": 48.882973,
    "lon": 2.345487,
    "arrondissement": 9
  },
  {
    "nom": "19 Rue du Chateaubriand 75008 Paris",
    "lat": 48.873478,
    "lon": 2.3008885,
    "arrondissement": 8
  },
  {
    "nom": "24 Rue Monte Cristo 75020 Paris",
    "lat": 48.855225,
    "lon": 2.3984911,
    "arrondissement": 20
  },
  {
    "nom": "18 Avenue Victor Hugo 75016 Paris",
    "lat": 48.87244,
    "lon": 2.2915578,
    "arrondissement": 16
  },
  {
    "nom": "5 Place du Commerce 75015 Paris",
    "lat": 48.84545,
    "lon": 2.292136,
    "arrondissement": 15
  },
  {
    "nom": "91 Rue du Faubourg Saint-Denis 75010 Paris",
    "lat": 48.87407,
    "lon": 2.3551424,
    "arrondissement": 10
  },
  {
    "nom": "1-3 Av. du Général Sarrail 75016 Paris",
    "lat": 48.846973,
    "lon": 2.2558389,
    "arrondissement": 16
  },
  {
    "nom": "20 Rue de Sevres 75006 Paris",
    "lat": 48.851025,
    "lon": 2.326367,
    "arrondissement": 6
  },
  {
    "nom": "43 Rue de Monceau 75008 Paris",
    "lat": 48.877834,
    "lon": 2.310832,
    "arrondissement": 8
  },
  {
    "nom": "22 Place Charles Fillion 75017 Paris",
    "lat": 48.888447,
    "lon": 2.3160603,
    "arrondissement": 17
  },
  {
    "nom": "43 Rue du Docteur Finlay 75015 Paris",
    "lat": 48.8512,
    "lon": 2.2913,
    "arrondissement": 15
  },
  {
    "nom": "155 Avenue Ledru Rollin 75011 Paris",
    "lat": 48.855328,
    "lon": 2.378338,
    "arrondissement": 11
  },
  {
    "nom": "137 Rue des Pyrénées 75020 Paris",
    "lat": 48.85844,
    "lon": 2.402911,
    "arrondissement": 20
  },
  {
    "nom": "26 Avenue Duquesne 75007 Paris",
    "lat": 48.851128,
    "lon": 2.3106372,
    "arrondissement": 7
  },
  {
    "nom": "157 Boulevard Murat 75016 Paris",
    "lat": 48.8379,
    "lon": 2.2628,
    "arrondissement": 16
  },
  {
    "nom": "120 Rue Ordener 75018 Paris",
    "lat": 48.893276,
    "lon": 2.3395,
    "arrondissement": 18
  },
  {
    "nom": "65 Avenue Emile Zola 75015 Paris",
    "lat": 48.846703,
    "lon": 2.2844167,
    "arrondissement": 15
  },
  {
    "nom": "31 boulevard Rochechouart 75009 Paris",
    "lat": 48.882973,
    "lon": 2.345487,
    "arrondissement": 9
  },
  {
    "nom": "2 Rue des Couronnes 75020 Paris",
    "lat": 48.8692,
    "lon": 2.3809,
    "arrondissement": 20
  },
  {
    "nom": "10 Rue jean Nicot 75007 Paris",
    "lat": 48.86113,
    "lon": 2.3069868,
    "arrondissement": 7
  },
  {
    "nom": "1 Rue Dante 75005 Paris",
    "lat": 48.851387,
    "lon": 2.3472476,
    "arrondissement": 5
  },
  {
    "nom": "4 Place Saint-Gervais 75004 Paris",
    "lat": 48.856052,
    "lon": 2.3537521,
    "arrondissement": 4
  },
  {
    "nom": "107 Quai de Valmy 75010 Paris",
    "lat": 48.87484,
    "lon": 2.36289,
    "arrondissement": 10
  },
  {
    "nom": "4 Avenue Parmentier 75011 Paris",
    "lat": 48.85895,
    "lon": 2.379874,
    "arrondissement": 11
  },
  {
    "nom": "4 Avenue Parmentier 75011 Paris",
    "lat": 48.85895,
    "lon": 2.379874,
    "arrondissement": 11
  },
  {
    "nom": "73 Avenue des Ternes 75017 Paris",
    "lat": 48.879463,
    "lon": 2.2899947,
    "arrondissement": 17
  },
  {
    "nom": "119 Avenue de Flandre 75019 Paris",
    "lat": 48.89166,
    "lon": 2.3775942,
    "arrondissement": 19
  },
  {
    "nom": "251 Rue de Charenton 75012 Paris",
    "lat": 48.83641,
    "lon": 2.3922555,
    "arrondissement": 12
  },
  {
    "nom": "1 Rue Pierre Brossolette 75005 Paris",
    "lat": 48.84196,
    "lon": 2.347262,
    "arrondissement": 5
  },
  {
    "nom": "99 Rue de la Convention 75015 Paris",
    "lat": 48.841663,
    "lon": 2.286931,
    "arrondissement": 15
  },
  {
    "nom": "4 Avenue Secrétan 75019 Paris",
    "lat": 48.882175,
    "lon": 2.370891,
    "arrondissement": 19
  },
  {
    "nom": "188 Avenue de Choisy 75013 Paris",
    "lat": 48.83039,
    "lon": 2.356917,
    "arrondissement": 13
  },
  {
    "nom": "23 Quai aux Fleurs 75004 Paris",
    "lat": 48.854847,
    "lon": 2.3505278,
    "arrondissement": 4
  },
  {
    "nom": "107 Quai de Valmy 75010 Paris",
    "lat": 48.87484,
    "lon": 2.36289,
    "arrondissement": 10
  },
  {
    "nom": "2 bis Rue Valette 75005 Paris",
    "lat": 48.848,
    "lon": 2.3469365,
    "arrondissement": 5
  },
  {
    "nom": "36 Quai de Béthune 75004 Paris",
    "lat": 48.851254,
    "lon": 2.3564553,
    "arrondissement": 4
  },
  {
    "nom": "14 Rue Sorbier 75020 Paris",
    "lat": 48.86732,
    "lon": 2.3906963,
    "arrondissement": 20
  },
  {
    "nom": "8 Boulevard Voltaire 75011 Paris",
    "lat": 48.865765,
    "lon": 2.3664377,
    "arrondissement": 11
  },
  {
    "nom": "6 Avenue de la Porte Pouchet 75017 Paris",
    "lat": 48.897976,
    "lon": 2.323452,
    "arrondissement": 17
  },
  {
    "nom": "52 Boulevard de Charonne 75020 Paris",
    "lat": 48.8519,
    "lon": 2.3982,
    "arrondissement": 20
  },
  {
    "nom": "6 Avenue de la Porte Pouchet 75017 Paris",
    "lat": 48.897976,
    "lon": 2.323452,
    "arrondissement": 17
  },
  {
    "nom": "137 Rue des Pyrénées 75020 Paris",
    "lat": 48.85844,
    "lon": 2.402911,
    "arrondissement": 20
  },
  {
    "nom": "36 Rue Etienne Marcel 75002 Paris",
    "lat": 48.86502,
    "lon": 2.344388,
    "arrondissement": 2
  },
  {
    "nom": "2 Boulevard Edgar Quinet 75014 Paris",
    "lat": 48.83951,
    "lon": 2.3301675,
    "arrondissement": 14
  },
  {
    "nom": "38 Rue du Four 75006 Paris",
    "lat": 48.85245,
    "lon": 2.3314662,
    "arrondissement": 6
  },
  {
    "nom": "7 rue Abel 75012 PARIS",
    "lat": 48.846645,
    "lon": 2.3747718,
    "arrondissement": 12
  },
  {
    "nom": "52 Boulevard Arago 75013 Paris",
    "lat": 48.835163,
    "lon": 2.3446052,
    "arrondissement": 13
  },
  {
    "nom": "81 Rue de Rome 75017 Paris",
    "lat": 48.882717,
    "lon": 2.319768,
    "arrondissement": 17
  },
  {
    "nom": "12 Boulevard Emile Augier 75016 Paris",
    "lat": 48.859184,
    "lon": 2.273944,
    "arrondissement": 16
  },
  {
    "nom": "10 Rue de la Fédération 75015 Paris",
    "lat": 48.85482,
    "lon": 2.2904053,
    "arrondissement": 15
  },
  {
    "nom": "77 Avenue de Wagram 75017 Paris",
    "lat": 48.88003,
    "lon": 2.2995074,
    "arrondissement": 17
  },
  {
    "nom": "1-3 Av. du Général Sarrail 75016 Paris",
    "lat": 48.846973,
    "lon": 2.2558389,
    "arrondissement": 16
  },
  {
    "nom": "70 Avenue Henri Martin 75016 Paris",
    "lat": 48.8646,
    "lon": 2.2754,
    "arrondissement": 16
  },
  {
    "nom": "181 quater Avenue de Clichy 75017 Paris",
    "lat": 48.8935,
    "lon": 2.3148,
    "arrondissement": 17
  },
  {
    "nom": "52 Boulevard de Charonne 75020 Paris",
    "lat": 48.8519,
    "lon": 2.3982,
    "arrondissement": 20
  },
  {
    "nom": "19 Rue Leblanc 75015 Paris",
    "lat": 48.83984,
    "lon": 2.273328,
    "arrondissement": 15
  },
  {
    "nom": "1 Rue d'Uzès 75002 Paris",
    "lat": 48.870422,
    "lon": 2.3454537,
    "arrondissement": 2
  },
  {
    "nom": "42 Rue Brunel 75017 Paris",
    "lat": 48.878845,
    "lon": 2.2878556,
    "arrondissement": 17
  },
  {
    "nom": "8 Quai du Marché Neuf 75004 Paris",
    "lat": 48.8542,
    "lon": 2.345341,
    "arrondissement": 4
  },
  {
    "nom": "6 Rue Guébriant 75020 Paris",
    "lat": 48.8731,
    "lon": 2.4092,
    "arrondissement": 20
  },
  {
    "nom": "38 Rue du Four 75006 Paris",
    "lat": 48.85245,
    "lon": 2.3314662,
    "arrondissement": 6
  },
  {
    "nom": "2 square Tolstoï 75016 Paris",
    "lat": 48.8531,
    "lon": 2.261698,
    "arrondissement": 16
  },
  {
    "nom": "24 Rue de la Paix 75002 Paris",
    "lat": 48.869926,
    "lon": 2.3320835,
    "arrondissement": 2
  },
  {
    "nom": "41 Rue de Tolbiac 75013 Paris",
    "lat": 48.827972,
    "lon": 2.372195,
    "arrondissement": 13
  },
  {
    "nom": "5 Rue Jacques Callot 75006 Paris",
    "lat": 48.855206,
    "lon": 2.337108,
    "arrondissement": 6
  },
  {
    "nom": "2 Rue Pérignon 75007 Paris",
    "lat": 48.84793,
    "lon": 2.309952,
    "arrondissement": 7
  },
  {
    "nom": "56 Rue la Fayette 75009 Paris",
    "lat": 48.875465,
    "lon": 2.342083,
    "arrondissement": 9
  },
  {
    "nom": "80 Rue François Miron 75004 Paris",
    "lat": 48.855366,
    "lon": 2.3591938,
    "arrondissement": 4
  },
  {
    "nom": "24 Rue des Frigos 75013 Paris",
    "lat": 48.83171,
    "lon": 2.379246,
    "arrondissement": 13
  },
  {
    "nom": "18 rue Laborde 75008 PARIS",
    "lat": 48.87577,
    "lon": 2.320347,
    "arrondissement": 8
  },
  {
    "nom": "4 Rue de Lobau 75004 Paris",
    "lat": 48.856796,
    "lon": 2.3538697,
    "arrondissement": 4
  },
  {
    "nom": "105 avenue de la République 75011 Paris",
    "lat": 48.86322,
    "lon": 2.3862243,
    "arrondissement": 11
  },
  {
    "nom": "137 Rue des Pyrénées 75020 Paris",
    "lat": 48.85844,
    "lon": 2.402911,
    "arrondissement": 20
  },
  {
    "nom": "16 Rue du Télégraphe 75020 Paris",
    "lat": 48.87233,
    "lon": 2.39951,
    "arrondissement": 20
  },
  {
    "nom": "43 Rue de Monceau 75008 Paris",
    "lat": 48.877834,
    "lon": 2.310832,
    "arrondissement": 8
  },
  {
    "nom": "70 Avenue Henri Martin 75016 Paris",
    "lat": 48.8646,
    "lon": 2.2754,
    "arrondissement": 16
  },
  {
    "nom": "1 Rue Jean-François Lépine 75018 Paris",
    "lat": 48.8861,
    "lon": 2.3591,
    "arrondissement": 18
  },
  {
    "nom": "50 Rue Botzaris 75019 Paris",
    "lat": 48.8792,
    "lon": 2.3839,
    "arrondissement": 19
  },
  {
    "nom": "150 Rue Marcadet 75018 Paris",
    "lat": 48.8913,
    "lon": 2.3385,
    "arrondissement": 18
  },
  {
    "nom": "150 Rue Marcadet 75018 Paris",
    "lat": 48.8913,
    "lon": 2.3385,
    "arrondissement": 18
  },
  {
    "nom": "126 Rue d'Aubervilliers 75019 Paris",
    "lat": 48.8917,
    "lon": 2.3691,
    "arrondissement": 19
  },
  {
    "nom": "21 Rue Fernand Braudel 75013 Paris",
    "lat": 48.83623,
    "lon": 2.3724644,
    "arrondissement": 13
  },
  {
    "nom": "142 Rue de Bagnolet 75020 Paris",
    "lat": 48.86143,
    "lon": 2.4056437,
    "arrondissement": 20
  },
  {
    "nom": "1 Rue Jacques Duchesne 75019 Paris",
    "lat": 48.898933,
    "lon": 2.3740363,
    "arrondissement": 19
  },
  {
    "nom": "112 Avenue de Suffren 75015 Paris",
    "lat": 48.848923,
    "lon": 2.3045475,
    "arrondissement": 15
  },
  {
    "nom": "171 Rue de la Convention 75015 Paris",
    "lat": 48.838314,
    "lon": 2.2943442,
    "arrondissement": 15
  },
  {
    "nom": "29 Rue Cotentin 75015 Paris",
    "lat": 48.838547,
    "lon": 2.312675,
    "arrondissement": 15
  },
  {
    "nom": "97 Boulevard de Port-Royal 75014 Paris",
    "lat": 48.838314,
    "lon": 2.3408663,
    "arrondissement": 14
  },
  {
    "nom": "36 Rue Saint-Maur 75011 Paris",
    "lat": 48.861534,
    "lon": 2.3809278,
    "arrondissement": 11
  },
  {
    "nom": "63 Boulevard Richard Lenoir 75011 Paris",
    "lat": 48.86023,
    "lon": 2.3719914,
    "arrondissement": 11
  },
  {
    "nom": "19 Rue du Chateaubriand 75008 Paris",
    "lat": 48.873478,
    "lon": 2.3008885,
    "arrondissement": 8
  },
  {
    "nom": "55 Avenue de Ségur 75007 Paris",
    "lat": 48.849297,
    "lon": 2.3077698,
    "arrondissement": 7
  },
  {
    "nom": "14 Rue de Crimée 75019 Paris",
    "lat": 48.8778,
    "lon": 2.39182,
    "arrondissement": 19
  },
  {
    "nom": "81 Rue de Rome 75017 Paris",
    "lat": 48.882717,
    "lon": 2.319768,
    "arrondissement": 17
  },
  {
    "nom": "77 Avenue de la Grande Armée 75016 Paris",
    "lat": 48.876163,
    "lon": 2.286403,
    "arrondissement": 16
  },
  {
    "nom": "3 Avenue Claude Régaud 75013 Paris",
    "lat": 48.822433,
    "lon": 2.372971,
    "arrondissement": 13
  },
  {
    "nom": "5 Rue Docteur Goujon 75012 Paris",
    "lat": 48.839947,
    "lon": 2.397822,
    "arrondissement": 12
  },
  {
    "nom": "47 Avenue Bosquet 75007 Paris",
    "lat": 48.85755,
    "lon": 2.30437,
    "arrondissement": 7
  },
  {
    "nom": "52 Rue Étienne Marcel 75002 Paris",
    "lat": 48.865788,
    "lon": 2.342244,
    "arrondissement": 2
  },
  {
    "nom": "150 Rue Marcadet 75018 Paris",
    "lat": 48.8913,
    "lon": 2.3385,
    "arrondissement": 18
  },
  {
    "nom": "66 Rue de la Jonquière 75017 Paris",
    "lat": 48.894165,
    "lon": 2.3211582,
    "arrondissement": 17
  },
  {
    "nom": "13 Avenue du Père Lachaise 75020 Paris",
    "lat": 48.86424,
    "lon": 2.397724,
    "arrondissement": 20
  },
  {
    "nom": "24 Rue Vulpian 75013 Paris",
    "lat": 48.83105,
    "lon": 2.3460584,
    "arrondissement": 13
  },
  {
    "nom": "15 Rue Olier 75015 Paris",
    "lat": 48.835197,
    "lon": 2.2914295,
    "arrondissement": 15
  },
  {
    "nom": "10 Rue de Berri 75008 Paris",
    "lat": 48.872448,
    "lon": 2.3041663,
    "arrondissement": 8
  },
  {
    "nom": "43 Rue Vivienne 75002 Paris",
    "lat": 48.870564,
    "lon": 2.3408933,
    "arrondissement": 2
  },
  {
    "nom": "82 Rue de Crimée 75019 Paris",
    "lat": 48.8824,
    "lon": 2.3866,
    "arrondissement": 19
  },
  {
    "nom": "150 Rue Marcadet 75018 Paris",
    "lat": 48.8913,
    "lon": 2.3385,
    "arrondissement": 18
  },
  {
    "nom": "21 Boulevard des Invalides 75007 Paris",
    "lat": 48.85582,
    "lon": 2.3152447,
    "arrondissement": 7
  },
  {
    "nom": "40 Rue de Courcelles 75008 Paris",
    "lat": 48.876186,
    "lon": 2.3082976,
    "arrondissement": 8
  },
  {
    "nom": "14 Rue Sorbier 75020 Paris",
    "lat": 48.86732,
    "lon": 2.3906963,
    "arrondissement": 20
  },
  {
    "nom": "1 Rue Navier 75017 Paris",
    "lat": 48.8955,
    "lon": 2.3283,
    "arrondissement": 18
  },
  {
    "nom": "44 Rue des Pirogues de Bercy 75012 Paris",
    "lat": 48.833412,
    "lon": 2.388111,
    "arrondissement": 12
  },
  {
    "nom": "1-3 Av. du Général Sarrail 75016 Paris",
    "lat": 48.846973,
    "lon": 2.2558389,
    "arrondissement": 16
  },
  {
    "nom": "7 Rue Paul Painlevé 75005 Paris",
    "lat": 48.849903,
    "lon": 2.3444285,
    "arrondissement": 5
  },
  {
    "nom": "25 Rue Constantine 75007 Paris",
    "lat": 48.858727,
    "lon": 2.314834,
    "arrondissement": 7
  },
  {
    "nom": "76 Rue Botzaris 75019 Paris",
    "lat": 48.879482,
    "lon": 2.388647,
    "arrondissement": 19
  },
  {
    "nom": "2 Rue Mayet 75006 Paris",
    "lat": 48.84737,
    "lon": 2.3182092,
    "arrondissement": 6
  },
  {
    "nom": "1 Rue Navier 75017 Paris",
    "lat": 48.8955,
    "lon": 2.3283,
    "arrondissement": 18
  },
  {
    "nom": "2 Avenue Matignon 75008 Paris",
    "lat": 48.87006,
    "lon": 2.312597,
    "arrondissement": 8
  },
  {
    "nom": "55 Rue Pierre Charron 75008 Paris",
    "lat": 48.86937,
    "lon": 2.303269,
    "arrondissement": 8
  },
  {
    "nom": "37 Rue la Boétie 75008 Paris",
    "lat": 48.8737,
    "lon": 2.314663,
    "arrondissement": 8
  },
  {
    "nom": "2 Rue Péguy 75006 Paris",
    "lat": 48.843006,
    "lon": 2.3280363,
    "arrondissement": 6
  },
  {
    "nom": "44 Rue Paul Barruel 75015 Paris",
    "lat": 48.837364,
    "lon": 2.3059905,
    "arrondissement": 15
  },
  {
    "nom": "170 boulevard Pereire 75017 Paris",
    "lat": 48.882423,
    "lon": 2.2922037,
    "arrondissement": 17
  },
  {
    "nom": "50 Rue Botzaris 75019 Paris",
    "lat": 48.8792,
    "lon": 2.3839,
    "arrondissement": 19
  },
  {
    "nom": "7 boulevard de Picpus 75012 Paris",
    "lat": 48.840687,
    "lon": 2.400428,
    "arrondissement": 12
  },
  {
    "nom": "35 Rue Victor Massé 75009 Paris",
    "lat": 48.88109,
    "lon": 2.336666,
    "arrondissement": 9
  },
  {
    "nom": "2 Rue de Cronstadt 75015 Paris",
    "lat": 48.8349,
    "lon": 2.3026,
    "arrondissement": 15
  },
  {
    "nom": "12 Boulevard de Courcelles 75017 Paris",
    "lat": 48.88117,
    "lon": 2.313751,
    "arrondissement": 17
  },
  {
    "nom": "159 Rue Manin 75019 Paris",
    "lat": 48.886097,
    "lon": 2.3936,
    "arrondissement": 19
  },
  {
    "nom": "55 Rue d'Auteuil 75016 Paris",
    "lat": 48.8478,
    "lon": 2.2636,
    "arrondissement": 16
  },
  {
    "nom": "36 Avenue des Ternes 75017 Paris",
    "lat": 48.878963,
    "lon": 2.293606,
    "arrondissement": 17
  },
  {
    "nom": "36 Rue Claude Bernard 75005 PARIS",
    "lat": 48.839725,
    "lon": 2.3480263,
    "arrondissement": 5
  },
  {
    "nom": "2 Rue de Rungis 75013 Paris",
    "lat": 48.82195,
    "lon": 2.345853,
    "arrondissement": 13
  },
  {
    "nom": "7 boulevard Malesherbes 75008 Paris",
    "lat": 48.8706,
    "lon": 2.3226488,
    "arrondissement": 8
  },
  {
    "nom": "24 Avenue Paul Doumer 75016 Paris",
    "lat": 48.861015,
    "lon": 2.28308,
    "arrondissement": 16
  },
  {
    "nom": "265 Rue de Belleville 75020 Paris",
    "lat": 48.87559,
    "lon": 2.399738,
    "arrondissement": 20
  },
  {
    "nom": "67 Avenue Edisson 75013 PARIS",
    "lat": 48.829895,
    "lon": 2.3587494,
    "arrondissement": 13
  },
  {
    "nom": "15 Rue Olier 75015 Paris",
    "lat": 48.835197,
    "lon": 2.2914295,
    "arrondissement": 15
  },
  {
    "nom": "21 Rue Miollis 75015 Paris",
    "lat": 48.845806,
    "lon": 2.3038075,
    "arrondissement": 15
  },
  {
    "nom": "36 Quai de Béthune 75004 Paris",
    "lat": 48.851254,
    "lon": 2.3564553,
    "arrondissement": 4
  },
  {
    "nom": "24 Rue du Château Landon 75010 Paris",
    "lat": 48.881493,
    "lon": 2.362957,
    "arrondissement": 10
  },
  {
    "nom": "24 Rue du Château Landon 75010 Paris",
    "lat": 48.881493,
    "lon": 2.362957,
    "arrondissement": 10
  },
  {
    "nom": "245 Rue de Tolbiac 75013 Paris",
    "lat": 48.826233,
    "lon": 2.34245,
    "arrondissement": 13
  },
  {
    "nom": "1 Avenue Émile Laurent 75012 Paris",
    "lat": 48.84071,
    "lon": 2.409631,
    "arrondissement": 12
  },
  {
    "nom": "126 Rue d'Aubervilliers 75019 Paris",
    "lat": 48.8917,
    "lon": 2.3691,
    "arrondissement": 19
  },
  {
    "nom": "108 Rue Balard 75015 Paris",
    "lat": 48.8373,
    "lon": 2.2787,
    "arrondissement": 15
  },
  {
    "nom": "24 Rue de la Paix 75002 Paris",
    "lat": 48.869926,
    "lon": 2.3320835,
    "arrondissement": 2
  },
  {
    "nom": "2 Rue du Charolais 75012 Paris",
    "lat": 48.83919,
    "lon": 2.387853,
    "arrondissement": 12
  },
  {
    "nom": "1 Avenue Georges Mandel 75016 Paris",
    "lat": 48.863,
    "lon": 2.2858,
    "arrondissement": 16
  },
  {
    "nom": "4 Rue des Croix des Petits Champs 75001 Paris",
    "lat": 48.862465,
    "lon": 2.3393006,
    "arrondissement": 1
  },
  {
    "nom": "27 Rue Faidherbe 75011 Paris",
    "lat": 48.852573,
    "lon": 2.3830369,
    "arrondissement": 11
  },
  {
    "nom": "23 Quai aux Fleurs 75004 Paris",
    "lat": 48.854847,
    "lon": 2.3505278,
    "arrondissement": 4
  },
  {
    "nom": "50 Boulevard Pereire 75017 Paris",
    "lat": 48.887695,
    "lon": 2.3050365,
    "arrondissement": 17
  },
  {
    "nom": "25 Rue de la Plaine 75020 Paris",
    "lat": 48.85006,
    "lon": 2.4019644,
    "arrondissement": 20
  },
  {
    "nom": "77 Rue Nationale 75013 Paris",
    "lat": 48.826855,
    "lon": 2.3665764,
    "arrondissement": 13
  },
  {
    "nom": "1 Rue d'Uzès 75002 Paris",
    "lat": 48.870422,
    "lon": 2.3454537,
    "arrondissement": 2
  },
  {
    "nom": "1 Avenue Émile Laurent 75012 Paris",
    "lat": 48.84071,
    "lon": 2.409631,
    "arrondissement": 12
  },
  {
    "nom": "62 Rue Pierre Charron 75008 Paris",
    "lat": 48.869644,
    "lon": 2.3036203,
    "arrondissement": 8
  },
  {
    "nom": "1-3 Av. du Général Sarrail 75016 Paris",
    "lat": 48.846973,
    "lon": 2.2558389,
    "arrondissement": 16
  },
  {
    "nom": "4 Rue de Lobau 75004 Paris",
    "lat": 48.856796,
    "lon": 2.3538697,
    "arrondissement": 4
  },
  {
    "nom": "5 rue Frédérick Lemaître 75020 Paris",
    "lat": 48.873646,
    "lon": 2.3911798,
    "arrondissement": 20
  },
  {
    "nom": "16 Rue Sofia 75018 Paris",
    "lat": 48.885006,
    "lon": 2.3475914,
    "arrondissement": 18
  },
  {
    "nom": "143 boulevard Vincent Auriol 75013 Paris",
    "lat": 48.832825,
    "lon": 2.36241,
    "arrondissement": 13
  },
  {
    "nom": "5 boulevard de Bercy 75012 Paris",
    "lat": 48.84036,
    "lon": 2.378739,
    "arrondissement": 12
  },
  {
    "nom": "120 cours de Vincennes 75012 Paris",
    "lat": 48.846306,
    "lon": 2.410751,
    "arrondissement": 12
  },
  {
    "nom": "44 Rue des Pirogues de Bercy 75012 Paris",
    "lat": 48.833412,
    "lon": 2.388111,
    "arrondissement": 12
  },
  {
    "nom": "43 Rue de Monceau 75008 Paris",
    "lat": 48.877834,
    "lon": 2.310832,
    "arrondissement": 8
  },
  {
    "nom": "21 Boulevard des Invalides 75007 Paris",
    "lat": 48.85582,
    "lon": 2.3152447,
    "arrondissement": 7
  },
  {
    "nom": "15 Boulevard Mortier 75020 Paris",
    "lat": 48.8657,
    "lon": 2.4087,
    "arrondissement": 20
  },
  {
    "nom": "16 Rue de Botzaris 75019 Paris",
    "lat": 48.8769,
    "lon": 2.3812,
    "arrondissement": 19
  },
  {
    "nom": "2 Boulevard de Clichy 75018 Paris",
    "lat": 48.8823,
    "lon": 2.3395,
    "arrondissement": 18
  },
  {
    "nom": "2 Boulevard de Clichy 75018 Paris",
    "lat": 48.8823,
    "lon": 2.3395,
    "arrondissement": 18
  },
  {
    "nom": "40 Avenue de la Grande Armée 75017 Paris",
    "lat": 48.876,
    "lon": 2.2884,
    "arrondissement": 17
  },
  {
    "nom": "181 quater Avenue de Clichy 75017 Paris",
    "lat": 48.8935,
    "lon": 2.3148,
    "arrondissement": 17
  },
  {
    "nom": "139 Boulevard de Grenelle 75015 Paris",
    "lat": 48.8483,
    "lon": 2.301,
    "arrondissement": 15
  },
  {
    "nom": "6 Rue Guébriant 75020 Paris",
    "lat": 48.8731,
    "lon": 2.4092,
    "arrondissement": 20
  },
  {
    "nom": "50 Rue Botzaris 75019 Paris",
    "lat": 48.8792,
    "lon": 2.3839,
    "arrondissement": 19
  },
  {
    "nom": "13 Rue du conservatoire 75009 Paris",
    "lat": 48.87359,
    "lon": 2.3466527,
    "arrondissement": 9
  },
  {
    "nom": "8 Rue Danton 75006 Paris",
    "lat": 48.85262,
    "lon": 2.342107,
    "arrondissement": 6
  },
  {
    "nom": "104 Rue Louis Lumière 75020 Paris",
    "lat": 48.863766,
    "lon": 2.41177,
    "arrondissement": 20
  },
  {
    "nom": "4 Avenue Gourgaud 75017 Paris",
    "lat": 48.88569,
    "lon": 2.297463,
    "arrondissement": 17
  },
  {
    "nom": "2 Rue Chardon Lagache 75016 Paris",
    "lat": 48.84676,
    "lon": 2.268339,
    "arrondissement": 16
  },
  {
    "nom": "18 Avenue Emile Zola 75015 Paris",
    "lat": 48.846214,
    "lon": 2.279884,
    "arrondissement": 15
  },
  {
    "nom": "46 Avenue Reille 75014 Paris",
    "lat": 48.824387,
    "lon": 2.336857,
    "arrondissement": 14
  },
  {
    "nom": "7 Rue Danton 75006 Paris",
    "lat": 48.85246,
    "lon": 2.341483,
    "arrondissement": 6
  },
  {
    "nom": "44 Quai Henri IV 75004 Paris",
    "lat": 48.85023,
    "lon": 2.3615763,
    "arrondissement": 4
  },
  {
    "nom": "36 Rue Etienne Marcel 75002 Paris",
    "lat": 48.86502,
    "lon": 2.344388,
    "arrondissement": 2
  },
  {
    "nom": "12 Rue des Pyramides 75001 Paris",
    "lat": 48.86486,
    "lon": 2.3329713,
    "arrondissement": 1
  },
  {
    "nom": "14 Avenue Théophile Gauthier 75016 Paris",
    "lat": 48.850754,
    "lon": 2.2739246,
    "arrondissement": 16
  },
  {
    "nom": "29 Rue Cotentin 75015 Paris",
    "lat": 48.838547,
    "lon": 2.312675,
    "arrondissement": 15
  },
  {
    "nom": "5 bis Rue du Capitaine Ferber 75020 Paris",
    "lat": 48.86536,
    "lon": 2.405207,
    "arrondissement": 20
  },
  {
    "nom": "1 Rue Jean Sicard 75015 Paris",
    "lat": 48.8287,
    "lon": 2.2989,
    "arrondissement": 15
  },
  {
    "nom": "150 Rue des Poissonniers 75018 Paris",
    "lat": 48.89767,
    "lon": 2.352758,
    "arrondissement": 18
  },
  {
    "nom": "9 Rue Adolphe Mille 75019 Paris",
    "lat": 48.88842,
    "lon": 2.388149,
    "arrondissement": 19
  },
  {
    "nom": "44 Rue des Pirogues de Bercy 75012 Paris",
    "lat": 48.833412,
    "lon": 2.388111,
    "arrondissement": 12
  },
  {
    "nom": "44 Avenue George V 75008 Paris",
    "lat": 48.87057,
    "lon": 2.301121,
    "arrondissement": 8
  },
  {
    "nom": "10 Rue Castagnou 75014 Paris",
    "lat": 48.83273,
    "lon": 2.32608,
    "arrondissement": 14
  },
  {
    "nom": "210 Rue de Courcelles 75017 Paris",
    "lat": 48.8867,
    "lon": 2.2955,
    "arrondissement": 17
  },
  {
    "nom": "42 Rue Jean de la Fontaine 75016 Paris",
    "lat": 48.850998,
    "lon": 2.2719011,
    "arrondissement": 16
  },
  {
    "nom": "1 Rue Dante 75005 Paris",
    "lat": 48.851387,
    "lon": 2.3472476,
    "arrondissement": 5
  },
  {
    "nom": "220 Rue Marcadet 75018 Paris",
    "lat": 48.892082,
    "lon": 2.3331354,
    "arrondissement": 18
  },
  {
    "nom": "98 Rue de Turenne 75003 Paris",
    "lat": 48.86235,
    "lon": 2.3648512,
    "arrondissement": 3
  },
  {
    "nom": "20 Avenue Ledru Rollin 75012 Paris",
    "lat": 48.84652,
    "lon": 2.3692153,
    "arrondissement": 12
  },
  {
    "nom": "36 rue Claude bernard 75005 PARIS",
    "lat": 48.839592,
    "lon": 2.3480084,
    "arrondissement": 5
  },
  {
    "nom": "170 boulevard Pereire 75017 Paris",
    "lat": 48.882423,
    "lon": 2.2922037,
    "arrondissement": 17
  },
  {
    "nom": "1 Rue Chanaleilles 75007 Paris",
    "lat": 48.85304,
    "lon": 2.3190124,
    "arrondissement": 7
  },
  {
    "nom": "2 Rue Pétrarque 75016 Paris",
    "lat": 48.861294,
    "lon": 2.28423,
    "arrondissement": 16
  },
  {
    "nom": "36 Rue Etienne Marcel 75002 Paris",
    "lat": 48.86502,
    "lon": 2.344388,
    "arrondissement": 2
  },
  {
    "nom": "42 Avenue de Friedland 75008 Paris",
    "lat": 48.874165,
    "lon": 2.2976358,
    "arrondissement": 8
  },
  {
    "nom": "159 Rue Manin 75019 Paris",
    "lat": 48.886097,
    "lon": 2.3936,
    "arrondissement": 19
  },
  {
    "nom": "6 Rue Michelet 75006 Paris",
    "lat": 48.842564,
    "lon": 2.3363895,
    "arrondissement": 6
  },
  {
    "nom": "1 Rue du Colonel Pierre Avia 75015 Paris",
    "lat": 48.8326,
    "lon": 2.2788854,
    "arrondissement": 15
  },
  {
    "nom": "13 Rue Malher 75004 Paris",
    "lat": 48.85648,
    "lon": 2.361378,
    "arrondissement": 4
  },
  {
    "nom": "19 Rue du Chateaubriand 75008 Paris",
    "lat": 48.873478,
    "lon": 2.3008885,
    "arrondissement": 8
  },
  {
    "nom": "27 Rue des Batignolles 75017 Paris",
    "lat": 48.8847,
    "lon": 2.3213,
    "arrondissement": 17
  },
  {
    "nom": "11 Rue de Medicis 75006 Paris",
    "lat": 48.84824,
    "lon": 2.339865,
    "arrondissement": 6
  },
  {
    "nom": "171 Rue de la Convention 75015 Paris",
    "lat": 48.838314,
    "lon": 2.2943442,
    "arrondissement": 15
  },
  {
    "nom": "16 Rue de Botzaris 75019 Paris",
    "lat": 48.8769,
    "lon": 2.3812,
    "arrondissement": 19
  },
  {
    "nom": "55 Rue Pierre Charron 75008 Paris",
    "lat": 48.86937,
    "lon": 2.303269,
    "arrondissement": 8
  },
  {
    "nom": "1 Rue Chanaleilles 75007 Paris",
    "lat": 48.85304,
    "lon": 2.3190124,
    "arrondissement": 7
  },
  {
    "nom": "2 Rue Péguy 75006 Paris",
    "lat": 48.843006,
    "lon": 2.3280363,
    "arrondissement": 6
  },
  {
    "nom": "99 Rue Monge 75005 Paris",
    "lat": 48.84116,
    "lon": 2.352454,
    "arrondissement": 5
  },
  {
    "nom": "62 Jean-Jacques Rousseau 75001 Paris",
    "lat": 48.86409,
    "lon": 2.3437343,
    "arrondissement": 1
  },
  {
    "nom": "56 Rue des Plantes 75014 Paris",
    "lat": 48.82837,
    "lon": 2.3216963,
    "arrondissement": 14
  },
  {
    "nom": "1 Avenue Georges Mandel 75016 Paris",
    "lat": 48.863,
    "lon": 2.2858,
    "arrondissement": 16
  },
  {
    "nom": "158 Boulevard de Charonne 75020 Paris",
    "lat": 48.856915,
    "lon": 2.3941433,
    "arrondissement": 20
  },
  {
    "nom": "143 Avenue Émile Zola 75015 Paris",
    "lat": 48.8472,
    "lon": 2.2953,
    "arrondissement": 15
  },
  {
    "nom": "77 Avenue de la Grande Armée 75016 Paris",
    "lat": 48.876163,
    "lon": 2.286403,
    "arrondissement": 16
  },
  {
    "nom": "21 Quai de la Tournelle 75005 Paris",
    "lat": 48.850033,
    "lon": 2.354431,
    "arrondissement": 5
  },
  {
    "nom": "170 boulevard Pereire 75017 Paris",
    "lat": 48.882423,
    "lon": 2.2922037,
    "arrondissement": 17
  },
  {
    "nom": "265 Rue de Belleville 75020 Paris",
    "lat": 48.87559,
    "lon": 2.399738,
    "arrondissement": 20
  },
  {
    "nom": "116 Rue Réaumur 75002 Paris",
    "lat": 48.86781,
    "lon": 2.34525,
    "arrondissement": 2
  },
  {
    "nom": "21 Rue Miollis 75015 Paris",
    "lat": 48.845806,
    "lon": 2.3038075,
    "arrondissement": 15
  },
  {
    "nom": "145 Rue Raymond Losserand 75014 Paris",
    "lat": 48.83126,
    "lon": 2.313088,
    "arrondissement": 14
  },
  {
    "nom": "2 Rue Fabre d'Églantine 75012 Paris",
    "lat": 48.845577,
    "lon": 2.3953738,
    "arrondissement": 12
  },
  {
    "nom": "1 Rue Fernand Labori 75018 Paris",
    "lat": 48.898304,
    "lon": 2.3423252,
    "arrondissement": 18
  },
  {
    "nom": "36 rue Claude bernard 75005 PARIS",
    "lat": 48.839592,
    "lon": 2.3480084,
    "arrondissement": 5
  },
  {
    "nom": "5 Place du Commerce 75015 Paris",
    "lat": 48.84545,
    "lon": 2.292136,
    "arrondissement": 15
  },
  {
    "nom": "356 Rue des Pyrénées 75020 Paris",
    "lat": 48.87387,
    "lon": 2.3864658,
    "arrondissement": 20
  },
  {
    "nom": "159 Rue Manin 75019 Paris",
    "lat": 48.886097,
    "lon": 2.3936,
    "arrondissement": 19
  },
  {
    "nom": "28 Avenue Carnot 75017 Paris",
    "lat": 48.87683,
    "lon": 2.2928,
    "arrondissement": 17
  },
  {
    "nom": "60 Avenue Victor Hugo 75016 Paris",
    "lat": 48.870342,
    "lon": 2.286851,
    "arrondissement": 16
  },
  {
    "nom": "66 Rue Henri Barbusse 75014 Paris",
    "lat": 48.83912,
    "lon": 2.337229,
    "arrondissement": 14
  },
  {
    "nom": "28 Rue de Paradis 75010 Paris",
    "lat": 48.875076,
    "lon": 2.352321,
    "arrondissement": 10
  },
  {
    "nom": "19 Rue Tronchet 75008 Paris",
    "lat": 48.87236,
    "lon": 2.326167,
    "arrondissement": 8
  },
  {
    "nom": "10 Rue jean Nicot 75007 Paris",
    "lat": 48.86113,
    "lon": 2.3069868,
    "arrondissement": 7
  },
  {
    "nom": "18 Rue Linnée 75005 Paris",
    "lat": 48.845257,
    "lon": 2.3548336,
    "arrondissement": 5
  },
  {
    "nom": "6 Rue Michelet 75006 Paris",
    "lat": 48.842564,
    "lon": 2.3363895,
    "arrondissement": 6
  },
  {
    "nom": "6 Rue Michelet 75006 Paris",
    "lat": 48.842564,
    "lon": 2.3363895,
    "arrondissement": 6
  },
  {
    "nom": "2 Rue Péguy 75006 Paris",
    "lat": 48.843006,
    "lon": 2.3280363,
    "arrondissement": 6
  },
  {
    "nom": "15 Boulevard Mortier 75020 Paris",
    "lat": 48.8657,
    "lon": 2.4087,
    "arrondissement": 20
  },
  {
    "nom": "67 Rue Dulong 75017 Paris",
    "lat": 48.8863,
    "lon": 2.3151,
    "arrondissement": 17
  },
  {
    "nom": "20 Boulevard Émile Augier 75016 Paris",
    "lat": 48.8603,
    "lon": 2.274,
    "arrondissement": 16
  },
  {
    "nom": "50 Rue Botzaris 75019 Paris",
    "lat": 48.8792,
    "lon": 2.3839,
    "arrondissement": 19
  },
  {
    "nom": "1 Rue Boulard 75014 Paris",
    "lat": 48.834854,
    "lon": 2.3297832,
    "arrondissement": 14
  },
  {
    "nom": "16 Rue Bobillot 75013 Paris",
    "lat": 48.82958,
    "lon": 2.3537664,
    "arrondissement": 13
  },
  {
    "nom": "6 Rue de Metz 75010 Paris",
    "lat": 48.87081,
    "lon": 2.354076,
    "arrondissement": 10
  },
  {
    "nom": "13 Rue du conservatoire 75009 Paris",
    "lat": 48.87359,
    "lon": 2.3466527,
    "arrondissement": 9
  },
  {
    "nom": "7 Rue Francois 1er 75008 Paris",
    "lat": 48.865772,
    "lon": 2.308419,
    "arrondissement": 8
  },
  {
    "nom": "9 Boulevard des Batignolles 75008 Paris",
    "lat": 48.883015,
    "lon": 2.325922,
    "arrondissement": 8
  },
  {
    "nom": "48 Rue Henri Huchard 75018 Paris",
    "lat": 48.89919,
    "lon": 2.330375,
    "arrondissement": 18
  },
  {
    "nom": "48 Rue Henri Huchard 75018 Paris",
    "lat": 48.89919,
    "lon": 2.330375,
    "arrondissement": 18
  },
  {
    "nom": "75 Rue de la Convention 75015 Paris",
    "lat": 48.842567,
    "lon": 2.2848904,
    "arrondissement": 15
  },
  {
    "nom": "109 Avenue Félix Faure 75015 Paris",
    "lat": 48.83892,
    "lon": 2.282485,
    "arrondissement": 15
  },
  {
    "nom": "19 Rue Leblanc 75015 Paris",
    "lat": 48.83984,
    "lon": 2.273328,
    "arrondissement": 15
  },
  {
    "nom": "192 Rue de la Croix Nivert 75015 Paris",
    "lat": 48.838886,
    "lon": 2.2892983,
    "arrondissement": 15
  },
  {
    "nom": "12 Place du Général Koënig 75017 Paris",
    "lat": 48.88112,
    "lon": 2.284095,
    "arrondissement": 17
  },
  {
    "nom": "36 Boulevard Richard Lenoir 75011 Paris",
    "lat": 48.857258,
    "lon": 2.37139,
    "arrondissement": 11
  },
  {
    "nom": "83 Rue de Courcelles 75017 Paris",
    "lat": 48.879654,
    "lon": 2.302442,
    "arrondissement": 17
  },
  {
    "nom": "2 Rue Antonin Mercié 75015 Paris",
    "lat": 48.828453,
    "lon": 2.300643,
    "arrondissement": 15
  },
  {
    "nom": "118 Rue Regnault 75013 Paris",
    "lat": 48.82312,
    "lon": 2.367798,
    "arrondissement": 13
  },
  {
    "nom": "26 Rue Léon Frot 75011 Paris",
    "lat": 48.854664,
    "lon": 2.387548,
    "arrondissement": 11
  },
  {
    "nom": "9 Avenue de Villars 75007 Paris",
    "lat": 48.852665,
    "lon": 2.31368,
    "arrondissement": 7
  },
  {
    "nom": "2 Rue Duroc 75007 Paris",
    "lat": 48.84828,
    "lon": 2.315725,
    "arrondissement": 7
  },
  {
    "nom": "1 Avenue Rachel 75018 Paris",
    "lat": 48.884415,
    "lon": 2.3305461,
    "arrondissement": 18
  },
  {
    "nom": "23 Boulevard Delessert 75016 Paris",
    "lat": 48.85857,
    "lon": 2.2851212,
    "arrondissement": 16
  },
  {
    "nom": "14 Rue Bertin Poirée 75001 Paris",
    "lat": 48.85881,
    "lon": 2.3449502,
    "arrondissement": 1
  },
  {
    "nom": "16 Rue Sofia 75018 Paris",
    "lat": 48.885006,
    "lon": 2.3475914,
    "arrondissement": 18
  },
  {
    "nom": "42 Avenue de Friedland 75008 Paris",
    "lat": 48.874165,
    "lon": 2.2976358,
    "arrondissement": 8
  },
  {
    "nom": "16 Rue du Télégraphe 75020 Paris",
    "lat": 48.87233,
    "lon": 2.39951,
    "arrondissement": 20
  },
  {
    "nom": "12 Rue Milton 75009 Paris",
    "lat": 48.87772,
    "lon": 2.3409176,
    "arrondissement": 9
  },
  {
    "nom": "10 Avenue de la Porte d'Aubervilliers 75019 Paris",
    "lat": 48.899334,
    "lon": 2.371162,
    "arrondissement": 19
  },
  {
    "nom": "37 Rue Sainte-Croix de la Bretonnerie 75004 Paris",
    "lat": 48.858505,
    "lon": 2.3543751,
    "arrondissement": 4
  },
  {
    "nom": "181 quater Avenue de Clichy 75017 Paris",
    "lat": 48.8935,
    "lon": 2.3148,
    "arrondissement": 17
  },
  {
    "nom": "55 Rue d'Auteuil 75016 Paris",
    "lat": 48.8478,
    "lon": 2.2636,
    "arrondissement": 16
  },
  {
    "nom": "8 Rue Adolphe Mille 75019 Paris",
    "lat": 48.8886,
    "lon": 2.3888,
    "arrondissement": 19
  },
  {
    "nom": "68 Avenue Mozart 75016 Paris",
    "lat": 48.8534,
    "lon": 2.2685,
    "arrondissement": 16
  },
  {
    "nom": "4 Avenue du Maine 75015 Paris",
    "lat": 48.844707,
    "lon": 2.3198109,
    "arrondissement": 15
  },
  {
    "nom": "143 Avenue Émile Zola 75015 Paris",
    "lat": 48.8472,
    "lon": 2.2953,
    "arrondissement": 15
  },
  {
    "nom": "112 Rue Monge 75005 Paris",
    "lat": 48.839275,
    "lon": 2.3507414,
    "arrondissement": 5
  },
  {
    "nom": "55 Avenue de Ségur 75007 Paris",
    "lat": 48.849297,
    "lon": 2.3077698,
    "arrondissement": 7
  },
  {
    "nom": "47 Avenue Bosquet 75007 Paris",
    "lat": 48.85755,
    "lon": 2.30437,
    "arrondissement": 7
  },
  {
    "nom": "126 Rue Legendre 75017 Paris",
    "lat": 48.8888,
    "lon": 2.3222,
    "arrondissement": 17
  },
  {
    "nom": "162 Rue de la Roquette 75011 Paris",
    "lat": 48.858604,
    "lon": 2.384125,
    "arrondissement": 11
  },
  {
    "nom": "21 Rue Miollis 75015 Paris",
    "lat": 48.845806,
    "lon": 2.3038075,
    "arrondissement": 15
  },
  {
    "nom": "42 Avenue de Friedland 75008 Paris",
    "lat": 48.874165,
    "lon": 2.2976358,
    "arrondissement": 8
  },
  {
    "nom": "125 Bis Avenue Parmentier 75011 Paris",
    "lat": 48.86908,
    "lon": 2.371679,
    "arrondissement": 11
  },
  {
    "nom": "70 Avenue Henri Martin 75016 Paris",
    "lat": 48.8646,
    "lon": 2.2754,
    "arrondissement": 16
  },
  {
    "nom": "5 Rue Jacques Callot 75006 Paris",
    "lat": 48.855206,
    "lon": 2.337108,
    "arrondissement": 6
  },
  {
    "nom": "220 Rue Marcadet 75018 Paris",
    "lat": 48.892082,
    "lon": 2.3331354,
    "arrondissement": 18
  },
  {
    "nom": "80 Rue François Miron 75004 Paris",
    "lat": 48.855366,
    "lon": 2.3591938,
    "arrondissement": 4
  },
  {
    "nom": "5 Rue de la Chaussée d'Antin 75009 Paris",
    "lat": 48.871643,
    "lon": 2.3338861,
    "arrondissement": 9
  },
  {
    "nom": "23 Rue du Départ 75014 Paris",
    "lat": 48.842175,
    "lon": 2.323305,
    "arrondissement": 14
  },
  {
    "nom": "64 Rue du Faubourg Poissonnière 75010 Paris",
    "lat": 48.87517,
    "lon": 2.348162,
    "arrondissement": 10
  },
  {
    "nom": "52 Boulevard Arago 75013 Paris",
    "lat": 48.835163,
    "lon": 2.3446052,
    "arrondissement": 13
  },
  {
    "nom": "3 Rue Henard 75012 Paris",
    "lat": 48.84154,
    "lon": 2.389211,
    "arrondissement": 12
  },
  {
    "nom": "76 Boulevard de la Tour-Maubourg 75007 Paris",
    "lat": 48.856014,
    "lon": 2.3097644,
    "arrondissement": 7
  },
  {
    "nom": "17 Place de la République 75003 Paris",
    "lat": 48.86745,
    "lon": 2.3630073,
    "arrondissement": 3
  },
  {
    "nom": "5 bis Rue du Capitaine Ferber 75020 Paris",
    "lat": 48.86536,
    "lon": 2.405207,
    "arrondissement": 20
  },
  {
    "nom": "110 Boulevard Richard Lenoir 75011 Paris",
    "lat": 48.864063,
    "lon": 2.3713984,
    "arrondissement": 11
  },
  {
    "nom": "87 Boulevard Beaumarchais 75003 Paris",
    "lat": 48.858967,
    "lon": 2.36738,
    "arrondissement": 3
  },
  {
    "nom": "12 Boulevard de Courcelles 75017 Paris",
    "lat": 48.88117,
    "lon": 2.313751,
    "arrondissement": 17
  },
  {
    "nom": "64 Rue du Faubourg Poissonnière 75010 Paris",
    "lat": 48.87517,
    "lon": 2.348162,
    "arrondissement": 10
  },
  {
    "nom": "76 Rue Botzaris 75019 Paris",
    "lat": 48.879482,
    "lon": 2.388647,
    "arrondissement": 19
  },
  {
    "nom": "66 Rue Gay-Lussac 75005 Paris",
    "lat": 48.842007,
    "lon": 2.3430684,
    "arrondissement": 5
  },
  {
    "nom": "2 Rue du Buisson Saint Louis 75010 Paris",
    "lat": 48.87179,
    "lon": 2.372482,
    "arrondissement": 10
  },
  {
    "nom": "66 Rue d'Astorg 75008 Paris",
    "lat": 48.872833,
    "lon": 2.3193886,
    "arrondissement": 8
  },
  {
    "nom": "39 Rue Riquet 75019 Paris",
    "lat": 48.88901,
    "lon": 2.371768,
    "arrondissement": 19
  },
  {
    "nom": "2 Rue du Buisson Saint Louis 75010 Paris",
    "lat": 48.87179,
    "lon": 2.372482,
    "arrondissement": 10
  },
  {
    "nom": "18 rue Laborde 75008 PARIS",
    "lat": 48.87577,
    "lon": 2.320347,
    "arrondissement": 8
  },
  {
    "nom": "107 Quai de Valmy 75010 Paris",
    "lat": 48.87484,
    "lon": 2.36289,
    "arrondissement": 10
  },
  {
    "nom": "11 Rue François de Neufchateau 75011 Paris",
    "lat": 48.85615,
    "lon": 2.3825247,
    "arrondissement": 11
  },
  {
    "nom": "1 Rue Jules Romains 75019 Paris",
    "lat": 48.87274,
    "lon": 2.3782985,
    "arrondissement": 19
  },
  {
    "nom": "143 Rue La Fayette 75010 Paris",
    "lat": 48.879135,
    "lon": 2.3560476,
    "arrondissement": 10
  },
  {
    "nom": "1 Rue Croulebarbe 75013 Paris",
    "lat": 48.834526,
    "lon": 2.353056,
    "arrondissement": 13
  },
  {
    "nom": "7 boulevard Malesherbes 75008 Paris",
    "lat": 48.8706,
    "lon": 2.3226488,
    "arrondissement": 8
  },
  {
    "nom": "137 Rue la Fayette 75010 Paris",
    "lat": 48.8789,
    "lon": 2.355064,
    "arrondissement": 10
  },
  {
    "nom": "9 Boulevard Bourdon 75004 Paris",
    "lat": 48.848423,
    "lon": 2.366004,
    "arrondissement": 4
  },
  {
    "nom": "36 Rue Claude Bernard 75005 PARIS",
    "lat": 48.839725,
    "lon": 2.3480263,
    "arrondissement": 5
  },
  {
    "nom": "18 rue Laborde 75008 PARIS",
    "lat": 48.87577,
    "lon": 2.320347,
    "arrondissement": 8
  },
  {
    "nom": "4 Avenue Secrétan 75019 Paris",
    "lat": 48.882175,
    "lon": 2.370891,
    "arrondissement": 19
  },
  {
    "nom": "99 Rue de la Convention 75015 Paris",
    "lat": 48.841663,
    "lon": 2.286931,
    "arrondissement": 15
  },
  {
    "nom": "162 Rue Championnet 75018 Paris",
    "lat": 48.8949,
    "lon": 2.3355,
    "arrondissement": 18
  },
  {
    "nom": "162 Rue Championnet 75018 Paris",
    "lat": 48.8949,
    "lon": 2.3355,
    "arrondissement": 18
  },
  {
    "nom": "2 Rue Abel 75012 Paris",
    "lat": 48.846294,
    "lon": 2.374877,
    "arrondissement": 12
  },
  {
    "nom": "17 Avenue Victoria 75001 Paris",
    "lat": 48.85788,
    "lon": 2.34681,
    "arrondissement": 1
  },
  {
    "nom": "54 Rue David d'Angers 75019 Paris",
    "lat": 48.8818,
    "lon": 2.3938,
    "arrondissement": 19
  },
  {
    "nom": "17 Avenue Victoria 75001 Paris",
    "lat": 48.85788,
    "lon": 2.34681,
    "arrondissement": 1
  },
  {
    "nom": "18 rue Laborde 75008 PARIS",
    "lat": 48.87577,
    "lon": 2.320347,
    "arrondissement": 8
  },
  {
    "nom": "54 Boulevard Sérurier 75019 Paris",
    "lat": 48.88042,
    "lon": 2.398476,
    "arrondissement": 19
  },
  {
    "nom": "1 Rue Jules Lefèbvre 75009 Paris",
    "lat": 48.880447,
    "lon": 2.3283632,
    "arrondissement": 9
  },
  {
    "nom": "227 Avenue Gambetta 75020 Paris",
    "lat": 48.874134,
    "lon": 2.405196,
    "arrondissement": 20
  },
  {
    "nom": "60 Boulevard Sérurier 75019 Paris",
    "lat": 48.88101,
    "lon": 2.3978,
    "arrondissement": 19
  },
  {
    "nom": "119 Avenue de Flandre 75019 Paris",
    "lat": 48.89166,
    "lon": 2.3775942,
    "arrondissement": 19
  },
  {
    "nom": "39 Rue Riquet 75019 Paris",
    "lat": 48.88901,
    "lon": 2.371768,
    "arrondissement": 19
  },
  {
    "nom": "16 Rue Claude Bernard 75005 Paris",
    "lat": 48.839775,
    "lon": 2.3476574,
    "arrondissement": 5
  },
  {
    "nom": "173 Avenue du Maine 75014 Paris",
    "lat": 48.83086,
    "lon": 2.325895,
    "arrondissement": 14
  },
  {
    "nom": "251 Rue de Charenton 75012 Paris",
    "lat": 48.83641,
    "lon": 2.3922555,
    "arrondissement": 12
  },
  {
    "nom": "8 Avenue de Choisy 75013 Paris",
    "lat": 48.82056,
    "lon": 2.3643334,
    "arrondissement": 13
  },
  {
    "nom": "33 Rue d'Alésia 75014 Paris",
    "lat": 48.827686,
    "lon": 2.3330016,
    "arrondissement": 14
  },
  {
    "nom": "265 Rue de Belleville 75020 Paris",
    "lat": 48.87559,
    "lon": 2.399738,
    "arrondissement": 20
  },
  {
    "nom": "118 Rue Regnault 75013 Paris",
    "lat": 48.82312,
    "lon": 2.367798,
    "arrondissement": 13
  },
  {
    "nom": "143 Avenue Émile Zola 75015 Paris",
    "lat": 48.8472,
    "lon": 2.2953,
    "arrondissement": 15
  },
  {
    "nom": "7 Rue Paul Painlevé 75005 Paris",
    "lat": 48.849903,
    "lon": 2.3444285,
    "arrondissement": 5
  },
  {
    "nom": "4 Rue de Lobau 75004 Paris",
    "lat": 48.856796,
    "lon": 2.3538697,
    "arrondissement": 4
  },
  {
    "nom": "51 Avenue Raymond Poincaré 75016 Paris",
    "lat": 48.86697,
    "lon": 2.2858796,
    "arrondissement": 16
  },
  {
    "nom": "8 boulevard de la Madeleine 75009 Paris",
    "lat": 48.86972,
    "lon": 2.326691,
    "arrondissement": 9
  },
  {
    "nom": "45 Avenue de la Bourdonnais 75007 Paris",
    "lat": 48.85807,
    "lon": 2.299582,
    "arrondissement": 7
  },
  {
    "nom": "16 Place des États-Unis 75016 Paris",
    "lat": 48.8685,
    "lon": 2.2927,
    "arrondissement": 16
  },
  {
    "nom": "18 Rue Linnée 75005 Paris",
    "lat": 48.845257,
    "lon": 2.3548336,
    "arrondissement": 5
  },
  {
    "nom": "1-3 Av. du Général Sarrail 75016 Paris",
    "lat": 48.846973,
    "lon": 2.2558389,
    "arrondissement": 16
  },