[
  {
    "nom": "JARDINIERES DE LA PROMENADE SPORTIVE DU BOULEVARD DE LA CHAPELLE",
    "categorie": "Jardiniere",
    "surface": 366,
    "arrondissement": 18,
    "lat": 48.884185724567416,
    "lon": 2.3558117020143903
  },
  {
    "nom": "JARDINIERES VGA DU BOULEVARD DE LA BASTILLE",
    "categorie": "Jardiniere",
    "surface": null,
    "arrondissement": 12,
    "lat": 48.84651080977181,
    "lon": 2.366981583994864
  },
  {
    "nom": "JARDINET PLACE DU GENERAL INGOLD",
    "categorie": "Jardinet",
    "surface": 578,
    "arrondissement": 19,
    "lat": 48.8724302737896,
    "lon": 2.3772732152852836
  },
  {
    "nom": "JARDIN MAURICE BARLIER",
    "categorie": "Jardin",
    "surface": 1670,
    "arrondissement": 16,
    "lat": 48.86900704915837,
    "lon": 2.274242254872275
  },
  {
    "nom": "JARDINIERE VERTICALE DU 7 IMPASSE BERTHAUD",
    "categorie": "Murs vegetalises",
    "surface": null,
    "arrondissement": 3,
    "lat": 48.86152541716101,
    "lon": 2.3542619158764784
  },
  {
    "nom": "JARDINIERES RAE DE LA RUE DE LA REUNION",
    "categorie": "Jardiniere",
    "surface": null,
    "arrondissement": 20,
    "lat": 48.856467212341734,
    "lon": 2.4003333758350807
  },
  {
    "nom": "JARDINIERE VERTICALE DU 14 RUE DES VERTUS",
    "categorie": "Murs vegetalises",
    "surface": null,
    "arrondissement": 3,
    "lat": 48.86422857361633,
    "lon": 2.3578761924036953
  },
  {
    "nom": "SQUARE DU VERT GALANT",
    "categorie": "Square",
    "surface": 1642,
    "arrondissement": 1,
    "lat": 48.85740086444881,
    "lon": 2.340269741832003
  },
  {
    "nom": "09-10",
    "categorie": "Talus",
    "surface": null,
    "arrondissement": 15,
    "lat": 48.83381511104602,
    "lon": 2.2759358001966765
  },
  {
    "nom": "JARDINIERE DE LA PLACE GILBERT PRIVAT",
    "categorie": "Jardiniere",
    "surface": 87,
    "arrondissement": 14,
    "lat": 48.83516789371121,
    "lon": 2.3297099441369715
  },
  {
    "nom": "MAIL DU PASSAGE NAFISSA SID CARA",
    "categorie": "Mail",
    "surface": 440,
    "arrondissement": 19,
    "lat": 48.8791808888766,
    "lon": 2.409427548041748
  },
  {
    "nom": "JARDINIERES VGA DE LA PLACE DE LA PORTE DE SAINT-CLOUD",
    "categorie": "Jardiniere",
    "surface": null,
    "arrondissement": 16,
    "lat": 48.83791891495065,
    "lon": 2.2569908094860356
  },
  {
    "nom": "JARDINIERES DE LA RUE CAIL",
    "categorie": "Jardiniere",
    "surface": 164,
    "arrondissement": 10,
    "lat": 48.882721181303886,
    "lon": 2.3603981192811423
  },
  {
    "nom": "JARDINIERES EVQ DE LA RUE WATTIGNIES",
    "categorie": "Jardiniere",
    "surface": null,
    "arrondissement": 12,
    "lat": 48.83699221188355,
    "lon": 2.3919408466754257
  },
  {
    "nom": "JARDINIERES DU PASSAGE VICTOR MARCHAND",
    "categorie": "Jardiniere",
    "surface": null,
    "arrondissement": 13,
    "lat": 48.82874989436476,
    "lon": 2.3426946733738125
  },
  {
    "nom": "04-52",
    "categorie": "Talus",
    "surface": null,
    "arrondissement": 14,
    "lat": 48.81767929716187,
    "lon": 2.334048473427215
  },
  {
    "nom": "JARDINIERES EVQ DE LA RUE DE CHARTRES",
    "categorie": "Jardiniere",
    "surface": 59,
    "arrondissement": 18,
    "lat": 48.88444834117689,
    "lon": 2.354866205836119
  },
  {
    "nom": "FORET URBAINE DE LA PLACE DE L HOTEL DE VILLE",
    "categorie": "Foret urbaine",
    "surface": 2982,
    "arrondissement": 4,
    "lat": 48.85663881172585,
    "lon": 2.3514968961142664
  },
  {
    "nom": "JARDINIERES VGA DE LA RUE PIERRE FONTAINE",
    "categorie": "Jardiniere",
    "surface": 66,
    "arrondissement": 9,
    "lat": 48.88218604303282,
    "lon": 2.3336578388055105
  },
  {
    "nom": "SQUARE SANTIAGO DU CHILI",
    "categorie": "Square",
    "surface": 3826,
    "arrondissement": 7,
    "lat": 48.85747586584056,
    "lon": 2.310918683879623
  },
  {
    "nom": "DECORATION DE LA FONTAINE DE LA PLACE EDMOND ROSTAND",
    "categorie": "Decoration",
    "surface": 290,
    "arrondissement": 6,
    "lat": 48.84740035886444,
    "lon": 2.340589900204091
  },
  {
    "nom": "JARDINIERES DE LA RUE D'AUTEUIL",
    "categorie": "Jardiniere",
    "surface": 70,
    "arrondissement": 16,
    "lat": 48.847870098806496,
    "lon": 2.2613174812896317
  },
  {
    "nom": "DECORATION DU MONUMENT VULPIAN",
    "categorie": "Decoration",
    "surface": 11,
    "arrondissement": 6,
    "lat": 48.85105666890891,
    "lon": 2.3396279676876306
  },
  {
    "nom": "JARDINIERES SAINT GERMAIN DES PRES",
    "categorie": "Jardiniere",
    "surface": 30,
    "arrondissement": 6,
    "lat": 48.85408229180112,
    "lon": 2.333604891003171
  },
  {
    "nom": "JARDINIERES RAE DE LA RUE BRETONNEAU",
    "categorie": "Jardiniere",
    "surface": 125,
    "arrondissement": 20,
    "lat": 48.86757614530664,
    "lon": 2.402963090681889
  },
  {
    "nom": "JARDINIERES PORTE MAILLOT ABORDS DU PHERIPHERIQUE 16E",
    "categorie": "Jardiniere",
    "surface": 2732,
    "arrondissement": 16,
    "lat": 48.87729723269442,
    "lon": 2.279636145888203
  },
  {
    "nom": "JARDINIERE DE LA PLACE STUART MERRILL",
    "categorie": "Jardiniere",
    "surface": 30,
    "arrondissement": 17,
    "lat": 48.88573920402967,
    "lon": 2.292685101776919
  },
  {
    "nom": "SQUARE DE LA PAIX",
    "categorie": "Square",
    "surface": 3925,
    "arrondissement": 20,
    "lat": 48.84878419697654,
    "lon": 2.415824794283143
  },
  {
    "nom": "JARDINIERE VERTICALE DE LA RUE TOURNEFORT",
    "categorie": "Murs vegetalises",
    "surface": null,
    "arrondissement": 5,
    "lat": 48.842444569095285,
    "lon": 2.348149631697121
  },
  {
    "nom": "SQUARE LOUIS XIII",
    "categorie": "Square",
    "surface": 12706,
    "arrondissement": 4,
    "lat": 48.855619058633344,
    "lon": 2.3655440128742304
  },
  {
    "nom": "JARDINIERE DE LA RUE FRANCISQUE GAY",
    "categorie": "Jardiniere",
    "surface": 32,
    "arrondissement": 6,
    "lat": 48.85284372889782,
    "lon": 2.3436047218543075
  },
  {
    "nom": "JARDINET DE LA STATUE DU FAUNE",
    "categorie": "Jardinet",
    "surface": 37,
    "arrondissement": 10,
    "lat": 48.882794051804666,
    "lon": 2.3623244893977158
  },
  {
    "nom": "JARDINET DE LA MAIRIE ANNEXE DU XIVEME",
    "categorie": "Jardinet",
    "surface": 34,
    "arrondissement": 14,
    "lat": 48.83255495001078,
    "lon": 2.325664668145917
  },
  {
    "nom": "JARDINET DE L'OEIL DU CANAL",
    "categorie": "Jardinet",
    "surface": 740,
    "arrondissement": 11,
    "lat": 48.86220356589003,
    "lon": 2.3722773847562917
  },
  {
    "nom": "JARDINIERE VERTICALE DU 4 RUE FROMENT",
    "categorie": "Murs vegetalises",
    "surface": null,
    "arrondissement": 11,
    "lat": 48.85682895986715,
    "lon": 2.3733482312463385
  },
  {
    "nom": "JARDINIERE DE LA PLACE MARIE CLAUDE VAILLANT COUTURIER",
    "categorie": "Jardiniere",
    "surface": 224,
    "arrondissement": 4,
    "lat": 48.85436116275969,
    "lon": 2.355442386284364
  },
  {
    "nom": "PARC DE BAGATELLE",
    "categorie": "Parc",
    "surface": null,
    "arrondissement": 16,
    "lat": 48.87047724909212,
    "lon": 2.24773526540961
  },
  {
    "nom": "28-03",
    "categorie": "Talus",
    "surface": null,
    "arrondissement": 20,
    "lat": 48.87531240370048,
    "lon": 2.409802489576915
  },
  {
    "nom": "JARDINIERES DE LA RUE JEANNE D'ARC",
    "categorie": "Jardiniere",
    "surface": 105,
    "arrondissement": 13,
    "lat": 48.82914007948318,
    "lon": 2.369527950631536
  },
  {
    "nom": "JARDINIERES DES RUES MARYSE BASTIER - JOSEPH BEDIER",
    "categorie": "Jardiniere",
    "surface": 252,
    "arrondissement": 13,
    "lat": 48.82065698750819,
    "lon": 2.3732701363751567
  },
  {
    "nom": "JARDINIERES EVQ DE LA RUE DE CHAUMONT",
    "categorie": "Jardiniere",
    "surface": 33,
    "arrondissement": 19,
    "lat": 48.88100063178953,
    "lon": 2.3717139913505036
  },
  {
    "nom": "20-01",
    "categorie": "Talus",
    "surface": null,
    "arrondissement": 17,
    "lat": 48.9003051185504,
    "lon": 2.3259598766488714
  },
  {
    "nom": "JARDINIERES DE LA PLACE CONSTANTIN BRANCUSI",
    "categorie": "Jardiniere",
    "surface": 112,
    "arrondissement": 14,
    "lat": 48.83700587790169,
    "lon": 2.320973861655711
  },
  {
    "nom": "JARDINET DE LA MAIRIE DU XVIIEME",
    "categorie": "Jardinet",
    "surface": 517,
    "arrondissement": 17,
    "lat": 48.88470193439761,
    "lon": 2.3222064827218154
  },
  {
    "nom": "SQUARE SAINTE-HELENE",
    "categorie": "Square",
    "surface": 2140,
    "arrondissement": 18,
    "lat": 48.89623439959892,
    "lon": 2.343100982624344
  },
  {
    "nom": "JARDIN PARTAGE DE L'AQUEDUC",
    "categorie": "Jardin partage",
    "surface": 1340,
    "arrondissement": 14,
    "lat": 48.826587169188144,
    "lon": 2.33701426835527
  },
  {
    "nom": "JARDINET DU 28 RUE GABRIELLE",
    "categorie": "Jardinet",
    "surface": 560,
    "arrondissement": 18,
    "lat": 48.886158555853505,
    "lon": 2.339944631935412
  },
  {
    "nom": "35-04",
    "categorie": "Talus",
    "surface": null,
    "arrondissement": 12,
    "lat": 48.82726614500542,
    "lon": 2.392397377875671
  },
  {
    "nom": "DECORATION DE L'AVENUE DE LA PORTE DE BAGNOLET",
    "categorie": "Decoration",
    "surface": 192,
    "arrondissement": 20,
    "lat": 48.86511507549535,
    "lon": 2.41146824981515
  },
  {
    "nom": "SQUARE LOUIS XVI",
    "categorie": "Square",
    "surface": 4184,
    "arrondissement": 8,
    "lat": 48.87381991558385,
    "lon": 2.3232157507919675
  },
  {
    "nom": "PROMENADE RICHARD LENOIR SQUARE RICHARD LENOIR",
    "categorie": "Promenade",
    "surface": 4875,
    "arrondissement": 11,
    "lat": 48.85910110501068,
    "lon": 2.3718229853309505
  },
  {
    "nom": "SQUARE EMILE COHL",
    "categorie": "Square",
    "surface": 3036,
    "arrondissement": 12,
    "lat": 48.84213911436449,
    "lon": 2.410183224704001
  },
  {
    "nom": "JARDIN DE L'IMPERATRICE EUGENIE",
    "categorie": "Jardin",
    "surface": 1500,
    "arrondissement": 12,
    "lat": 48.84860642953009,
    "lon": 2.3919262486821276
  },
  {
    "nom": "SQUARE HENRI GALLI",
    "categorie": "Square",
    "surface": 2000,
    "arrondissement": 4,
    "lat": 48.8513240938953,
    "lon": 2.3617807803885706
  },
  {
    "nom": "JARDIN JEAN-CLAUDE NICOLAS FORESTIER",
    "categorie": "Jardin",
    "surface": 6180,
    "arrondissement": 13,
    "lat": 48.81929498397837,
    "lon": 2.3478847189803562
  },
  {
    "nom": "JARDIN ATLANTIQUE",
    "categorie": "Jardin",
    "surface": 34200,
    "arrondissement": 15,
    "lat": 48.83978576831236,
    "lon": 2.318847681982826
  },
  {
    "nom": "JARDINIERE VERTICALE DU 49 RUE LUCIEN SAMPAIX",
    "categorie": "Murs vegetalises",
    "surface": null,
    "arrondissement": 10,
    "lat": 48.874459170565295,
    "lon": 2.3626489514315843
  },
  {
    "nom": "SQUARE RAOUL NORDLING",
    "categorie": "Square",
    "surface": 1255,
    "arrondissement": 11,
    "lat": 48.85265799846988,
    "lon": 2.381568819780539
  },
  {
    "nom": "JARDINIERES DE LA PLACE JUSSIEU",
    "categorie": "Jardiniere",
    "surface": 110,
    "arrondissement": 5,
    "lat": 48.84628069308153,
    "lon": 2.354869424727563
  },
  {
    "nom": "JARDINIERES DE L'AVENUE DU MAINE",
    "categorie": "Jardiniere",
    "surface": 138,
    "arrondissement": 14,
    "lat": 48.83235528188969,
    "lon": 2.3250386416493747
  },
  {
    "nom": "JARDINIERES DE LA RUE DAMREMONT",
    "categorie": "Jardiniere",
    "surface": 148,
    "arrondissement": 18,
    "lat": 48.89428296145782,
    "lon": 2.3367401793211564
  },
  {
    "nom": "JARDINIERES DE LA RUE BEETHOVEN",
    "categorie": "Jardiniere",
    "surface": 30,
    "arrondissement": 16,
    "lat": 48.85876601931189,
    "lon": 2.2870081865698246
  },
  {
    "nom": "DECORATION DU BOULEVARD VINCENT AURIOL",
    "categorie": "Decoration",
    "surface": 1571,
    "arrondissement": 13,
    "lat": 48.83405228469668,
    "lon": 2.3662260508095914
  },
  {
    "nom": "TALUS DU MOULINET",
    "categorie": "Talus",
    "surface": 159,
    "arrondissement": 13,
    "lat": 48.82660225703775,
    "lon": 2.3535663149750032
  },
  {
    "nom": "ESPACE VERT DU CENTRE SPORTIF BERTRAND DAUVIN",
    "categorie": "Espace Vert",
    "surface": 3931,
    "arrondissement": 18,
    "lat": 48.90015600012991,
    "lon": 2.341599956782695
  },
  {
    "nom": "JARDINIERE ANGLE DES RUES DE LA TOMBE ISSOIRE - DU PERE CORENTIN",
    "categorie": "Jardiniere",
    "surface": 85,
    "arrondissement": 14,
    "lat": 48.826974088209624,
    "lon": 2.3320709344803503
  },
  {
    "nom": "JARDINIERE VERTICALE DU 7 AVENUE LEDRU ROLLIN",
    "categorie": "Murs vegetalises",
    "surface": null,
    "arrondissement": 12,
    "lat": 48.84634716050968,
    "lon": 2.368284867042557
  },
  {
    "nom": "ESPACE VERT DU TEP RENE ET ANDRE MOURLON",
    "categorie": "Espace Vert",
    "surface": 300,
    "arrondissement": 15,
    "lat": 48.84933996284967,
    "lon": 2.2846053342787487
  },
  {
    "nom": "JARDINIERE DE LA PLACE THEODORE RIVIERE",
    "categorie": "Jardiniere",
    "surface": 7,
    "arrondissement": 16,
    "lat": 48.84743659068766,
    "lon": 2.268620325056076
  },
  {
    "nom": "JARDINIERE VERTICALE DU 1 PLACE DE LA PORTE MAILLOT",
    "categorie": "Murs vegetalises",
    "surface": null,
    "arrondissement": 16,
    "lat": 48.876653888283506,
    "lon": 2.2822527864510063
  },
  {
    "nom": "JARDINIERES DE LA RUE CHARLES TOURNEMIRE",
    "categorie": "Jardiniere",
    "surface": 605,
    "arrondissement": 17,
    "lat": 48.88552167648193,
    "lon": 2.2857325340725163
  },
  {
    "nom": "JARDINIERE VERTICALE DU 15 RUE NOLLET",
    "categorie": "Murs vegetalises",
    "surface": null,
    "arrondissement": 17,
    "lat": 48.885504857507094,
    "lon": 2.3235701895284078
  },
  {
    "nom": "03-00",
    "categorie": "Talus",
    "surface": null,
    "arrondissement": 13,
    "lat": 48.817478636191794,
    "lon": 2.3539772514854507
  },
  {
    "nom": "JARDINIERES DU QUAI DE LA GARONNE",
    "categorie": "Jardiniere",
    "surface": 160,
    "arrondissement": 19,
    "lat": 48.88994495955139,
    "lon": 2.387471986007775
  },
  {
    "nom": "JARDIN MARTHA  DESRUMAUX",
    "categorie": "Jardin",
    "surface": 4615,
    "arrondissement": 12,
    "lat": 48.848220746894285,
    "lon": 2.3853726512880318
  },
  {
    "nom": "JARDINIERES EVQ RUE SAINT LAZARE",
    "categorie": "Jardiniere",
    "surface": null,
    "arrondissement": 9,
    "lat": 48.87677392184019,
    "lon": 2.3326074540358226
  },
  {
    "nom": "JARDINIERES  EVQ DE LA RUE DE SUEZ",
    "categorie": "Jardiniere",
    "surface": 132,
    "arrondissement": 18,
    "lat": 48.88742403039216,
    "lon": 2.3518932007696334
  },
  {
    "nom": "SQUARE DE LA PLACE PASDELOUP",
    "categorie": "Square",
    "surface": 525,
    "arrondissement": 11,
    "lat": 48.86296535167107,
    "lon": 2.367049795944528
  },
  {
    "nom": "COMPLEXE SPORTIF ELISABETH",
    "categorie": "Espace Vert",
    "surface": 5511,
    "arrondissement": 14,
    "lat": 48.82061933603214,
    "lon": 2.327514050802643
  },
  {
    "nom": "JARDIN TINO ROSSI - MUSEE DE LA SCULPTURE EN PLEIN AIR",
    "categorie": "Jardin",
    "surface": 33143,
    "arrondissement": 5,
    "lat": 48.84738904723854,
    "lon": 2.360933354312918
  },
  {
    "nom": "SQUARE OLGA BANCIC",
    "categorie": "Square",
    "surface": 520,
    "arrondissement": 11,
    "lat": 48.85619897583923,
    "lon": 2.380886390196503
  },
  {
    "nom": "SQUARE NICOLE DE HAUTECLOCQUE",
    "categorie": "Square",
    "surface": 7540,
    "arrondissement": 15,
    "lat": 48.8522054394932,
    "lon": 2.29437980826793
  },
  {
    "nom": "JARDIN YITZHAK RABIN",
    "categorie": "Jardin",
    "surface": 59300,
    "arrondissement": 12,
    "lat": 48.83518478895149,
    "lon": 2.3824861797005186
  },
  {
    "nom": "JARDINIERE DE LA RUE OLIVIER MESSIAEN",
    "categorie": "Jardiniere",
    "surface": 41,
    "arrondissement": 13,
    "lat": 48.829819790310076,
    "lon": 2.379223162577472
  },
  {
    "nom": "JARDINIERE ANGLE DES RUES SAINT-JULIEN LE PAUVRE - GALANDE",
    "categorie": "Jardiniere",
    "surface": 43,
    "arrondissement": 5,
    "lat": 48.85204170791738,
    "lon": 2.34675016799292
  },
  {
    "nom": "JARDINIERES DE LA RUE DU COLONEL ROZANOFF",
    "categorie": "Jardiniere",
    "surface": 140,
    "arrondissement": 12,
    "lat": 48.84574622815911,
    "lon": 2.387288108490175
  },
  {
    "nom": "SQUARE MARIGNY",
    "categorie": "Square",
    "surface": 6943,
    "arrondissement": 0,
    "lat": 48.846129540045304,
    "lon": 2.439443438040611
  },
  {
    "nom": "JARDINIERES DE LA RUE BORIS VIAN",
    "categorie": "Jardiniere",
    "surface": 81,
    "arrondissement": 18,
    "lat": 48.88525869261027,
    "lon": 2.3539688543325097
  },
  {
    "nom": "15-10",
    "categorie": "Talus",
    "surface": null,
    "arrondissement": 16,
    "lat": 48.873108971518505,
    "lon": 2.274387216737062
  },
  {
    "nom": "DECORATION DE LA PLACE DES ABBESSES",
    "categorie": "Decoration",
    "surface": 12,
    "arrondissement": 18,
    "lat": 48.88443285462595,
    "lon": 2.3384571266623153
  },
  {
    "nom": "JARDINIERE DE LA RUE DES MARCHAIS",
    "categorie": "Jardiniere",
    "surface": 62,
    "arrondissement": 19,
    "lat": 48.88392403720143,
    "lon": 2.3986305626067055
  },
  {
    "nom": "DECORATION DU ROND-POINT PORTE D'AUBERVILLIERS",
    "categorie": "Decoration",
    "surface": 4573,
    "arrondissement": 19,
    "lat": 48.90071379178622,
    "lon": 2.3709615186968755
  },
  {
    "nom": "26-01",
    "categorie": "Talus",
    "surface": null,
    "arrondissement": 19,
    "lat": 48.89386460014462,
    "lon": 2.3947696353091086
  },
  {
    "nom": "26-05",
    "categorie": "Talus",
    "surface": null,
    "arrondissement": 19,
    "lat": 48.89065416904877,
    "lon": 2.395673891026409
  },
  {
    "nom": "00-00",
    "categorie": "Talus",
    "surface": null,
    "arrondissement": 13,
    "lat": 48.82548518078354,
    "lon": 2.3869082894101425
  },
  {
    "nom": "32-00",
    "categorie": "Talus",
    "surface": null,
    "arrondissement": 12,
    "lat": 48.844329299423926,
    "lon": 2.4143100019847306
  },
  {
    "nom": "23-09",
    "categorie": "Talus",
    "surface": null,
    "arrondissement": 18,
    "lat": 48.90051414237594,
    "lon": 2.3595296052164527
  },
  {
    "nom": "23-23",
    "categorie": "Talus",
    "surface": null,
    "arrondissement": 18,
    "lat": 48.90043155112759,
    "lon": 2.365548288892074
  },
  {
    "nom": "02-01",
    "categorie": "Talus",
    "surface": null,
    "arrondissement": 13,
    "lat": 48.81683891500619,
    "lon": 2.364730045161226
  },
  {
    "nom": "02-05",
    "categorie": "Talus",
    "surface": null,
    "arrondissement": 13,
    "lat": 48.81676880523492,
    "lon": 2.364313178487831
  },
  {
    "nom": "16-03",
    "categorie": "Talus",
    "surface": 2173,
    "arrondissement": 16,
    "lat": 48.87610462006304,
    "lon": 2.2789343527439345
  },
  {
    "nom": "JARDIN FRANCOISE MALLET-JORIS",
    "categorie": "Jardin",
    "surface": 2500,
    "arrondissement": 13,
    "lat": 48.83166753290821,
    "lon": 2.373690603326023
  },
  {
    "nom": "PLATES BANDES AVENUE DE FLANDRE",
    "categorie": "Plate-bande",
    "surface": 1290,
    "arrondissement": 19,
    "lat": 48.88953298403296,
    "lon": 2.3754105899499467
  },
  {
    "nom": "JARDINIERE VERTICALE DU 29 RUE MOUFFETARD",
    "categorie": "Murs vegetalises",
    "surface": null,
    "arrondissement": 5,
    "lat": 48.84393966507664,
    "lon": 2.3494287640455402
  },
  {
    "nom": "COULEE VERTE RENE DUMONT - PROMENADE DE L'AVENUE EMILE LAURENT",
    "categorie": "Promenade",
    "surface": 9210,
    "arrondissement": 12,
    "lat": 48.84080635925221,
    "lon": 2.4122162269768204
  },
  {
    "nom": "JARDIN PARTAGE DE BEAUGRENELLE",
    "categorie": "Jardin partage",
    "surface": 700,
    "arrondissement": 15,
    "lat": 48.847608150163836,
    "lon": 2.2835381197366322
  },
  {
    "nom": "JARDIN PAULE MINCK",
    "categorie": "Square",
    "surface": 1630,
    "arrondissement": 20,
    "lat": 48.87183204009824,
    "lon": 2.4057848381729183
  },
  {
    "nom": "JARDINIERES DE LA RUE EUGENE JUMIN",
    "categorie": "Jardiniere",
    "surface": 110,
    "arrondissement": 19,
    "lat": 48.88750547787788,
    "lon": 2.392319650913692
  },
  {
    "nom": "JARDINIERES DE LA PLACE DE LA NATION (12eme)",
    "categorie": "Jardiniere",
    "surface": 2700,
    "arrondissement": 12,
    "lat": 48.84795722912792,
    "lon": 2.3956166366289438
  },
  {
    "nom": "JARDINIERE VERTICALE DU SQUARE LEOPOLD ACHILLE",
    "categorie": "Murs vegetalises",
    "surface": 100,
    "arrondissement": 3,
    "lat": 48.858476701816635,
    "lon": 2.3633219453693526
  },
  {
    "nom": "JARDINIERE VERTICALE DU JARDIN DE L'IMPASSE TRUILLOT",
    "categorie": "Murs vegetalises",
    "surface": 42,
    "arrondissement": 11,
    "lat": 48.860482041911915,
    "lon": 2.374449614314755
  },
  {
    "nom": "JARDINIERE VERTICALE DU SQUARE HENRI ET ACHILLE DUCHENE",
    "categorie": "Murs vegetalises",
    "surface": 38,
    "arrondissement": 14,
    "lat": 48.83208135743681,
    "lon": 2.3099165871489156
  },
  {
    "nom": "JARDINIERE VERTICALE DU JARDIN DE L'HOPITAL VAUGIRARD",
    "categorie": "Murs vegetalises",
    "surface": 80,
    "arrondissement": 15,
    "lat": 48.83493861496435,
    "lon": 2.292716332719145
  },
  {
    "nom": "DECORATION DE LA PLACE MAURICE DE FONTENAY",
    "categorie": "Decoration",
    "surface": 300,
    "arrondissement": 12,
    "lat": 48.845015761176,
    "lon": 2.388687352599194
  },
  {
    "nom": "DECORATION DU COURS DE VINCENNES",
    "categorie": "Decoration",
    "surface": 1597,
    "arrondissement": 20,
    "lat": 48.84796429504674,
    "lon": 2.402744730298862
  },
  {
    "nom": "JARDINIERE VERTICALE DU JARDIN DE L'HOSPICE DEBROUSSE",
    "categorie": "Murs vegetalises",
    "surface": 54,
    "arrondissement": 20,
    "lat": 48.86272394285849,
    "lon": 2.4070010697797564
  },
  {
    "nom": "JARDIN LAURE ALBIN GUILLOT",
    "categorie": "Jardin d'immeubles",
    "surface": 25240,
    "arrondissement": 13,
    "lat": 48.817496933991116,
    "lon": 2.3582947484474754
  },
  {
    "nom": "JARDINIERE VERTICALE DU 131 BOULEVARD MACDONALD",
    "categorie": "Murs vegetalises",
    "surface": null,
    "arrondissement": 19,
    "lat": 48.89865015087567,
    "lon": 2.3804577205716204
  },
  {
    "nom": "JARDINIERES DE LA PLACE DE BUDAPEST",
    "categorie": "Jardiniere",
    "surface": 75,
    "arrondissement": 9,
    "lat": 48.87745250300005,
    "lon": 2.326991597783204
  },
  {
    "nom": "JARDINIERES RAE DE LA RUE ASSELINE",
    "categorie": "Jardiniere",
    "surface": null,
    "arrondissement": 14,
    "lat": 48.8351113969652,
    "lon": 2.3226298669273584
  },
  {
    "nom": "JARDINIERES ET PLACETTE LEON BLUM",
    "categorie": "Jardiniere",
    "surface": 1673,
    "arrondissement": 11,
    "lat": 48.85802539723005,
    "lon": 2.380104980978293
  },
  {
    "nom": "JARDINIERES DU PARKING SAINT-MARTIN",
    "categorie": "Jardiniere",
    "surface": 175,
    "arrondissement": 3,
    "lat": 48.865628931610175,
    "lon": 2.3535188313061868
  },
  {
    "nom": "PROMENADE PC 13 - CHOISY - GANDON",
    "categorie": "Promenade",
    "surface": null,
    "arrondissement": 13,
    "lat": 48.82159027188521,
    "lon": 2.3614666200071404
  },
  {
    "nom": "JARDINIERE VERTICALE DU JARDIN DU RANELAGH 3",
    "categorie": "Murs vegetalises",
    "surface": 6,
    "arrondissement": 16,
    "lat": 48.85807820689066,
    "lon": 2.2717045095874058
  },
  {
    "nom": "JARDINIERES DE LA RUE MERE TERESA",
    "categorie": "Jardiniere",
    "surface": 350,
    "arrondissement": 17,
    "lat": 48.88826743071331,
    "lon": 2.3115673490088775
  },
  {
    "nom": "JARDINIERES RAE DE LA RUE RICHOMME",
    "categorie": "Jardiniere",
    "surface": 57,
    "arrondissement": 18,
    "lat": 48.88625431272853,
    "lon": 2.350992398288854
  },
  {
    "nom": "JARDINIERES EVQ DU PASSAGE DE MELUN",
    "categorie": "Jardiniere",
    "surface": 168,
    "arrondissement": 19,
    "lat": 48.88386430326004,
    "lon": 2.3764479795806746
  },
  {
    "nom": "JARDINIERES EVQ RUE MADEMOISELLE",
    "categorie": "Jardiniere",
    "surface": null,
    "arrondissement": 15,
    "lat": 48.84356502096583,
    "lon": 2.296688934703491
  },
  {
    "nom": "JARDINIERES EVQ DE LA RUE JEAN COLLY (EMBELLIR VOS QUARTIERS)",
    "categorie": "Jardiniere",
    "surface": 125,
    "arrondissement": 13,
    "lat": 48.82819479719337,
    "lon": 2.3678886784082795
  },
  {
    "nom": "JARDINIERES DU SQUARE DE JESSAINT",
    "categorie": "Jardiniere",
    "surface": 130,
    "arrondissement": 18,
    "lat": 48.884699624160284,
    "lon": 2.3586611173993295
  },
  {
    "nom": "PROMENADE RUE D'AUBERVILLIERS",
    "categorie": "Promenade",
    "surface": 1210,
    "arrondissement": 19,
    "lat": 48.89492622568482,
    "lon": 2.370983103111843
  },
  {
    "nom": "SQUARE SARAH BERNHARDT",
    "categorie": "Square",
    "surface": 12874,
    "arrondissement": 20,
    "lat": 48.84934688309112,
    "lon": 2.40387643720743
  },
  {
    "nom": "JARDINIERES EVQ RUE DES FRERES MORANE",
    "categorie": "Jardiniere",
    "surface": 88,
    "arrondissement": 15,
    "lat": 48.84177803657628,
    "lon": 2.29181617619099
  },
  {
    "nom": "JARDINS DES CHAMPS ELYSEES- JARDIN DE PARIS",
    "categorie": "Jardin",
    "surface": 8065,
    "arrondissement": 8,
    "lat": 48.86541320990373,
    "lon": 2.3164654993774594
  },
  {
    "nom": "PLATE-BANDE DU BOULEVARD RASPAIL(7)",
    "categorie": "Plate-bande",
    "surface": 157,
    "arrondissement": 7,
    "lat": 48.853902479699244,
    "lon": 2.32614346856687
  },
  {
    "nom": "JARDINIERES DE LA PLACE LOULOU GASTE",
    "categorie": "Jardiniere",
    "surface": 150,
    "arrondissement": 17,
    "lat": 48.886832491019085,
    "lon": 2.3008050307736343
  },
  {
    "nom": "JARDINIERE DE LA RUE SAINT-SAUVEUR",
    "categorie": "Jardiniere",
    "surface": 48,
    "arrondissement": 2,
    "lat": 48.8660436785327,
    "lon": 2.3491245640616474
  },
  {
    "nom": "JARDINIERES RAE DE LA RUE D ORAN",
    "categorie": "Jardiniere",
    "surface": 126,
    "arrondissement": 18,
    "lat": 48.889034649654654,
    "lon": 2.35255537291261
  },
  {
    "nom": "JARDINIERES DES RUES BOY ZELINSKI - GEORG FRIEDRICH HAENDEL - FRANCIS JAMES",
    "categorie": "Jardiniere",
    "surface": 952,
    "arrondissement": 10,
    "lat": 48.87772039806448,
    "lon": 2.367737476686041
  },
  {
    "nom": "JARDINIERE VERTICALE DU 23 AVENUE RENE FONCK",
    "categorie": "Murs vegetalises",
    "surface": null,
    "arrondissement": 19,
    "lat": 48.87988103643164,
    "lon": 2.4072493440000935
  },
  {
    "nom": "JARDINIERES EVQ DE LA RUE DU BUISSON SAINT LOUIS",
    "categorie": "Jardiniere",
    "surface": null,
    "arrondissement": 10,
    "lat": 48.87182206884707,
    "lon": 2.372464226485201
  },
  {
    "nom": "SQUARE CHARLES-VICTOR LANGLOIS",
    "categorie": "Square",
    "surface": 1140,
    "arrondissement": 4,
    "lat": 48.858722932004824,
    "lon": 2.357995762534248
  },
  {
    "nom": "JARDINIERES RAE RUE COMPANS",
    "categorie": "Jardiniere",
    "surface": 71,
    "arrondissement": 19,
    "lat": 48.88037255852914,
    "lon": 2.3897491149383328
  },
  {
    "nom": "JARDINIERES CHARLES MOUREU",
    "categorie": "Jardiniere",
    "surface": 3800,
    "arrondissement": 13,
    "lat": 48.82781614939694,
    "lon": 2.362557609166499
  },
  {
    "nom": "CIMETIERE DU SUD DIT DU MONTPARNASSE",
    "categorie": "Cimetière",
    "surface": 187200,
    "arrondissement": 14,
    "lat": 48.83802734825188,
    "lon": 2.327287003580539
  },
  {
    "nom": "JARDINIERE VERTICALE DU 65 BOULEVARD MORTIER",
    "categorie": "Murs vegetalises",
    "surface": null,
    "arrondissement": 20,
    "lat": 48.86838270973599,
    "lon": 2.408725387547581
  },
  {
    "nom": "23-01",
    "categorie": "Talus",
    "surface": null,
    "arrondissement": 18,
    "lat": 48.89999848554734,
    "lon": 2.358820611655574
  },
  {
    "nom": "JARDINIERE VERTICALE DU 2 RUE EMILE RICHARD",
    "categorie": "Murs vegetalises",
    "surface": null,
    "arrondissement": 14,
    "lat": 48.83769049510199,
    "lon": 2.328798170122077
  },
  {
    "nom": "JARDINIERES EVQ DE LA RUE BRILLAT -SAVARIN",
    "categorie": "Jardiniere",
    "surface": 181,
    "arrondissement": 13,
    "lat": 48.822287137789914,
    "lon": 2.345602402068585
  },
  {
    "nom": "JARDINIERES DE LA RUE STENDHAL",
    "categorie": "Jardiniere",
    "surface": 12,
    "arrondissement": 20,
    "lat": 48.861347369245856,
    "lon": 2.4019497333058215
  },
  {
    "nom": "JARDINIERES DE L AVENUE DAUMESNIL VIADUC DES ARTS",
    "categorie": "Jardiniere",
    "surface": 1500,
    "arrondissement": 12,
    "lat": 48.846783080594335,
    "lon": 2.376611741659376
  },
  {
    "nom": "JARDINIERES DU PARVIS DU CAMPUS CONDORCET-PORTE DE LA CHAPELLE",
    "categorie": null,
    "surface": null,
    "arrondissement": 18,
    "lat": 48.89889635285993,
    "lon": 2.359829537434734
  },
  {
    "nom": "JARDINIERES DE LA RUE ALPHONSE AULARD",
    "categorie": "Jardiniere",
    "surface": null,
    "arrondissement": 19,
    "lat": 48.88031144629117,
    "lon": 2.3986877910069326
  },
  {
    "nom": "TALUS DE L'AVENUE RENE COTY",
    "categorie": "Talus",
    "surface": 2300,
    "arrondissement": 14,
    "lat": 48.8255661429589,
    "lon": 2.3359604630350463
  },
  {
    "nom": "CIMETIERE DU CALVAIRE",
    "categorie": "Cimetière",
    "surface": 600,
    "arrondissement": 18,
    "lat": 48.88685963129755,
    "lon": 2.3418596193699757
  },
  {
    "nom": "24-06",
    "categorie": "Talus",
    "surface": null,
    "arrondissement": 19,
    "lat": 48.90050056067199,
    "lon": 2.382635265814574
  },
  {
    "nom": "PLATE-BANDE DE LA RUE GIRARDON (S.BUISSON)",
    "categorie": "Plate-bande",
    "surface": 75,
    "arrondissement": 18,
    "lat": 48.888708817747315,
    "lon": 2.3380461887085193
  },
  {
    "nom": "PROMENADE PEREIRE - GUERSANT / TERNES",
    "categorie": "Promenade",
    "surface": 1280,
    "arrondissement": 17,
    "lat": 48.88054619418405,
    "lon": 2.289053526389053
  },
  {
    "nom": "33-00",
    "categorie": "Talus",
    "surface": null,
    "arrondissement": 12,
    "lat": 48.834934853522775,
    "lon": 2.4117516612541823
  },
  {
    "nom": "JARDINIERE VERTICALE DU SQUARE CARLO SARRABEZOLLES 1",
    "categorie": "Murs vegetalises",
    "surface": 709,
    "arrondissement": 15,
    "lat": 48.836974226757924,
    "lon": 2.272978362917865
  },
  {
    "nom": "SQUARE DE LA PHOTO HIPPIQUE",
    "categorie": "Square",
    "surface": 4021,
    "arrondissement": 16,
    "lat": 48.86706028627006,
    "lon": 2.261056316579773
  },
  {
    "nom": "JARDINIERES EVQ DE LA RUE CARDINAL MERCIER",
    "categorie": "Jardiniere",
    "surface": 72,
    "arrondissement": 9,
    "lat": 48.881091770773594,
    "lon": 2.329419076770238
  },
  {
    "nom": "29-03",
    "categorie": "Talus",
    "surface": null,
    "arrondissement": 20,
    "lat": 48.867303452549585,
    "lon": 2.412969236086545
  },
  {
    "nom": "SQUARE PAUL GILOT",
    "categorie": "Square",
    "surface": 860,
    "arrondissement": 15,
    "lat": 48.84408209200621,
    "lon": 2.280461458580797
  },
  {
    "nom": "JARDIN CHRISTIANE DESROCHES NOBLECOURT",
    "categorie": "Jardin",
    "surface": 6040,
    "arrondissement": 16,
    "lat": 48.85302712415285,
    "lon": 2.27053989881131
  },
  {
    "nom": "JARDINIERES RAE DE LA RUE JACQUIER",
    "categorie": "Jardiniere",
    "surface": 66,
    "arrondissement": 14,
    "lat": 48.82998081575711,
    "lon": 2.31702172455012
  },
  {
    "nom": "TERRAIN DE BOULES BOULEVARD DE REIMS",
    "categorie": "Terrain de boules",
    "surface": 1062,
    "arrondissement": 17,
    "lat": 48.88873108583521,
    "lon": 2.2971763080009375
  },
  {
    "nom": "JARDINIERES DE LA PLACE GEORGES MULOT",
    "categorie": "Jardiniere",
    "surface": 15,
    "arrondissement": 15,
    "lat": 48.84689056738861,
    "lon": 2.3100161440614353
  },
  {
    "nom": "21-04",
    "categorie": "Talus",
    "surface": null,
    "arrondissement": 18,
    "lat": 48.90113169350792,
    "lon": 2.3408253829133385
  },
  {
    "nom": "JARDINIERE DE LA RUE VERCINGETORIX",
    "categorie": "Jardiniere",
    "surface": 200,
    "arrondissement": 14,
    "lat": 48.83664313708025,
    "lon": 2.317686685070053
  },
  {
    "nom": "03-05",
    "categorie": "Talus",
    "surface": null,
    "arrondissement": 13,
    "lat": 48.816566324569635,
    "lon": 2.344563453419747
  },
  {
    "nom": "09-00",
    "categorie": "Talus",
    "surface": null,
    "arrondissement": 15,
    "lat": 48.832577399040254,
    "lon": 2.279591105702944
  },
  {
    "nom": "SQUARE DE JESSAINT",
    "categorie": "Square",
    "surface": 1718,
    "arrondissement": 18,
    "lat": 48.884674236927914,
    "lon": 2.358648077655123
  },
  {
    "nom": "SQUARE ALEX BISCARRE",
    "categorie": "Square",
    "surface": 1180,
    "arrondissement": 9,
    "lat": 48.878495609390626,
    "lon": 2.3367433792051573
  },
  {
    "nom": "JARDINIERES DE L'ENTREE DU PARC KELLERMANN",
    "categorie": "Jardiniere",
    "surface": 182,
    "arrondissement": 13,
    "lat": 48.81917206097789,
    "lon": 2.3573795558852013
  },
  {
    "nom": "SQUARE JULES DURAND",
    "categorie": "Square",
    "surface": 1035,
    "arrondissement": 14,
    "lat": 48.830887053238875,
    "lon": 2.322384327229227
  },
  {
    "nom": "PARC ANDRE CITROEN",
    "categorie": "Parc",
    "surface": 144083,
    "arrondissement": 15,
    "lat": 48.8406687240362,
    "lon": 2.275545326640901
  },
  {
    "nom": "PROMENADE PLANTEE ARTHUR RIMBAUD",
    "categorie": "Promenade",
    "surface": 1365,
    "arrondissement": 13,
    "lat": 48.83585515839536,
    "lon": 2.375427114584513
  },
  {
    "nom": "JARDINIERE VERTICALE DU 2 RUE FERNAND LEGER",
    "categorie": "Murs vegetalises",
    "surface": null,
    "arrondissement": 20,
    "lat": 48.863581336723385,
    "lon": 2.3891943531322903
  },
  {
    "nom": "JARDINIERES DE LA RUE DES RONDONNEAUX",
    "categorie": "Jardiniere",
    "surface": 28,
    "arrondissement": 20,
    "lat": 48.86370730859648,
    "lon": 2.398995922958215
  },
  {
    "nom": "JARDINIERES DE LA RUE CAILLAUX",
    "categorie": "Jardiniere",
    "surface": 22,
    "arrondissement": 13,
    "lat": 48.82249848972437,
    "lon": 2.360841764499769
  },
  {
    "nom": "JARDINIERE VERTICALE DU 21 ALLEE DARIUS MILHAUD",
    "categorie": "Murs vegetalises",
    "surface": null,
    "arrondissement": 19,
    "lat": 48.88418484759019,
    "lon": 2.386979634107808
  },
  {
    "nom": "JARDINIERE DE LA RUE FESSART",
    "categorie": "Jardiniere",
    "surface": 28,
    "arrondissement": 19,
    "lat": 48.87671599896825,
    "lon": 2.385586171974447
  },
  {
    "nom": "CIMETIERE DE CHARONNE",
    "categorie": "Cimetière",
    "surface": 4200,
    "arrondissement": 20,
    "lat": 48.86071515934365,
    "lon": 2.403675674450658
  },
  {
    "nom": "JARDIN DE LA RUE GINETTE NEVEU",
    "categorie": "Jardin",
    "surface": 4152,
    "arrondissement": 18,
    "lat": 48.89999601314406,
    "lon": 2.345239417000581
  },
  {
    "nom": "JARDINIERE ANGLE DES RUES DE BELLEVUE - DES LILAS",
    "categorie": "Jardiniere",
    "surface": 50,
    "arrondissement": 19,
    "lat": 48.879490076171926,
    "lon": 2.39630812170776
  },
  {
    "nom": "JARDINETS DU PONT DE LA MOSELLE",
    "categorie": "Jardinet",
    "surface": 205,
    "arrondissement": 19,
    "lat": 48.88584389369733,
    "lon": 2.375456750043383
  },
  {
    "nom": "SQUARE CARLO SARRABEZOLLES",
    "categorie": "Square",
    "surface": 14660,
    "arrondissement": 15,
    "lat": 48.83737098882387,
    "lon": 2.271809330169906
  },
  {
    "nom": "JARDIN PARTAGE FESSART",
    "categorie": "Jardin partage",
    "surface": 395,
    "arrondissement": 19,
    "lat": 48.87665096611751,
    "lon": 2.3840396148536183
  },
  {
    "nom": "JARDINIERE VERTICALE DU 11 BOULEVARD DE LA GUYANE",
    "categorie": "Murs vegetalises",
    "surface": null,
    "arrondissement": 12,
    "lat": 48.83882455247237,
    "lon": 2.4134009418751137
  },
  {
    "nom": "JARDIN PARTAGE DU CLOS DES BLANCS MANTEAUX",
    "categorie": "Jardin partage",
    "surface": 100,
    "arrondissement": 4,
    "lat": 48.85847731167387,
    "lon": 2.3564317547492526
  },
  {
    "nom": "JARDINIERE VERTICALE DU 2 RUE DU COMMANDANT SCHLOESING",
    "categorie": "Murs vegetalises",
    "surface": null,
    "arrondissement": 16,
    "lat": 48.86206763502391,
    "lon": 2.285968566196419
  },
  {
    "nom": "JARDINIERE VERTICALE DU 23 PLACE DU TROCADERO ET DU ONZE NOVEMBRE",
    "categorie": "Murs vegetalises",
    "surface": null,
    "arrondissement": 16,
    "lat": 48.86261975795856,
    "lon": 2.2862605899080557
  },
  {
    "nom": "JARDINIERE VERTICALE DU 30B RUE GUY MOQUET",
    "categorie": "Murs vegetalises",
    "surface": null,
    "arrondissement": 17,
    "lat": 48.891911154167765,
    "lon": 2.3227974527120026
  },
  {
    "nom": "31-04",
    "categorie": "Talus",
    "surface": null,
    "arrondissement": 20,
    "lat": 48.84838896246185,
    "lon": 2.4153280214710104
  },
  {
    "nom": "31-09_J",
    "categorie": "Talus",
    "surface": null,
    "arrondissement": 20,
    "lat": 48.84770261324933,
    "lon": 2.4143459405290244
  },
  {
    "nom": "20-02",
    "categorie": "Talus",
    "surface": null,
    "arrondissement": 17,
    "lat": 48.90083556985672,
    "lon": 2.3276882272437387
  },
  {
    "nom": "SQUARE LAURENT PRACHE",
    "categorie": "Square",
    "surface": 590,
    "arrondissement": 6,
    "lat": 48.85425852790087,
    "lon": 2.333938934064321
  },
  {
    "nom": "SQUARE CAROLE ROUSSOPOULOS",
    "categorie": "Square",
    "surface": 5167,
    "arrondissement": 14,
    "lat": 48.83356591230296,
    "lon": 2.313641387844564
  },
  {
    "nom": "TEP VERDUN VALMY",
    "categorie": "Espace Vert",
    "surface": 1196,
    "arrondissement": 10,
    "lat": 48.876056327242345,
    "lon": 2.363118072650055
  },
  {
    "nom": "JARDIN DES RUES DES ORTEAUX - CROIX SAINT-SIMON",
    "categorie": "Jardin",
    "surface": 366,
    "arrondissement": 20,
    "lat": 48.855371190833324,
    "lon": 2.4093649777968142
  },
  {
    "nom": "JARDINIERE VERTICALE DU 44 RUE DU DESSOUS DES BERGES",
    "categorie": "Murs vegetalises",
    "surface": null,
    "arrondissement": 13,
    "lat": 48.82633533534941,
    "lon": 2.3747864964383303
  },
  {
    "nom": "JARDINIERE VERTICALE DU 1 RUE WATT",
    "categorie": "Murs vegetalises",
    "surface": null,
    "arrondissement": 13,
    "lat": 48.82818479266212,
    "lon": 2.382526613063155
  },
  {
    "nom": "JARDINETS DE L'EGLISE SAINT-NICOLAS DU CHARDONNET",
    "categorie": "Jardinet",
    "surface": 576,
    "arrondissement": 5,
    "lat": 48.849374465964786,
    "lon": 2.3506941869796023
  },
  {
    "nom": "SQUARE JEAN MOULIN",
    "categorie": "Square",
    "surface": 2660,
    "arrondissement": 14,
    "lat": 48.823913244753186,
    "lon": 2.318773488938656
  },
  {
    "nom": "PARC DE PASSY",
    "categorie": "Parc",
    "surface": 13780,
    "arrondissement": 16,
    "lat": 48.855754600367085,
    "lon": 2.283435676849954
  },
  {
    "nom": "JARDINIERES DU BOULEVARD DE PORT-ROYAL (5EME)",
    "categorie": "Jardiniere",
    "surface": 851,
    "arrondissement": 5,
    "lat": 48.83777643946934,
    "lon": 2.3458290681120286
  },
  {
    "nom": "JARDINIERES DE LA ZAC DORIAN",
    "categorie": "Jardiniere",
    "surface": 64,
    "arrondissement": 11,
    "lat": 48.854101548026556,
    "lon": 2.3937332017819233
  },
  {
    "nom": "JARDIN DU 62 AU 68 RUE D'ALLERAY",
    "categorie": "Jardin",
    "surface": 3030,
    "arrondissement": 15,
    "lat": 48.83604747105989,
    "lon": 2.3049795271502953
  },
  {
    "nom": "JARDIN PARTAGE JEAN GENET",
    "categorie": "Jardin partage",
    "surface": 450,
    "arrondissement": 14,
    "lat": 48.830840103856595,
    "lon": 2.311476516926154
  },
  {
    "nom": "JARDINET DE LA MAIRIE DU XVIEME",
    "categorie": "Jardinet",
    "surface": 1200,
    "arrondissement": 16,
    "lat": 48.86360192949324,
    "lon": 2.2761656669761936
  },
  {
    "nom": "SQUARE DU PETIT BOIS",
    "categorie": "Square",
    "surface": 1950,
    "arrondissement": 19,
    "lat": 48.88580580768433,
    "lon": 2.3925730194921067
  },
  {
    "nom": "PLATE-BANDE DE LA RUE DE L' ALBONI",
    "categorie": "Plate-bande",
    "surface": 158,
    "arrondissement": 16,
    "lat": 48.85715106507474,
    "lon": 2.2861565476684516
  },
  {
    "nom": "JARDIN PARTAGE CAMBRAI - CITE MICHELET",
    "categorie": "Jardin partage",
    "surface": 1140,
    "arrondissement": 19,
    "lat": 48.89539441789057,
    "lon": 2.3776325745583224
  },
  {
    "nom": "JARDIN PARTAGE LES JARDINS PASSAGERS",
    "categorie": "Jardin partage",
    "surface": 2000,
    "arrondissement": 19,
    "lat": 48.891079221328894,
    "lon": 2.388199439044569
  },
  {
    "nom": "27-01",
    "categorie": "Talus",
    "surface": null,
    "arrondissement": 19,
    "lat": 48.88456107224486,
    "lon": 2.398225101037806
  },
  {
    "nom": "SQUARE DU DOCTEUR J. J. GRANCHER",
    "categorie": "Square",
    "surface": 3300,
    "arrondissement": 20,
    "lat": 48.86543086001217,
    "lon": 2.394182461701178
  },
  {
    "nom": "34-01",
    "categorie": "Talus",
    "surface": null,
    "arrondissement": 12,
    "lat": 48.83140358582711,
    "lon": 2.4033569883110384
  },
  {
    "nom": "35-19",
    "categorie": "Talus",
    "surface": null,
    "arrondissement": 12,
    "lat": 48.828819635672275,
    "lon": 2.3912502569970635
  },
  {
    "nom": "21-15",
    "categorie": "Talus",
    "surface": null,
    "arrondissement": 18,
    "lat": 48.899970953511385,
    "lon": 2.360206192162675
  },
  {
    "nom": "15-05",
    "categorie": "Talus",
    "surface": null,
    "arrondissement": 16,
    "lat": 48.86856659016351,
    "lon": 2.2704170898020224
  },
  {
    "nom": "JARDIN PARTAGE DU 107 RUE DE REUILLY",
    "categorie": "Jardin partage",
    "surface": 500,
    "arrondissement": 12,
    "lat": 48.8426028146133,
    "lon": 2.393298007832653
  },
  {
    "nom": "JARDIN PARTAGE DU SQUARE PAUL NIZAN",
    "categorie": "Jardin partage",
    "surface": 97,
    "arrondissement": 13,
    "lat": 48.822481747728375,
    "lon": 2.357594511864931
  },
  {
    "nom": "JARDIN PARTAGE DES CEVENNES",
    "categorie": "Jardin partage",
    "surface": 113,
    "arrondissement": 15,
    "lat": 48.84364964864439,
    "lon": 2.275982689679235
  },
  {
    "nom": "JARDIN PARTAGE LABORI CLIGNANCOURT",
    "categorie": "Jardin partage",
    "surface": 300,
    "arrondissement": 18,
    "lat": 48.89913320464548,
    "lon": 2.3426088552582356
  },
  {
    "nom": "PROMENADE DE LA GARE D'AUTEUIL",
    "categorie": "Promenade",
    "surface": 4990,
    "arrondissement": 16,
    "lat": 48.84960380213592,
    "lon": 2.260815610202734
  },
  {
    "nom": "JARDINETS DE L'AVENUE DU PARC DE PASSY",
    "categorie": "Jardinet",
    "surface": 70,
    "arrondissement": 16,
    "lat": 48.85636529406921,
    "lon": 2.2823966003679432
  },
  {
    "nom": "JARDINIERES DE LA RUE GERBERT",
    "categorie": "Jardiniere",
    "surface": 510,
    "arrondissement": 15,
    "lat": 48.839657107046364,
    "lon": 2.298093295836095
  },
  {
    "nom": "JARDINIERES DE LA RUE DIDOT",
    "categorie": "Jardiniere",
    "surface": 130,
    "arrondissement": 14,
    "lat": 48.82683815551913,
    "lon": 2.3135182827396776
  },
  {
    "nom": "JARDINIERE VERTICALE  DU 69 RUE JEAN BAPTISTE PIGALLE",
    "categorie": "Murs vegetalises",
    "surface": null,
    "arrondissement": 9,
    "lat": 48.88137401377302,
    "lon": 2.336207351519123
  },
  {
    "nom": "JARDINIERE VERTICALE DU SQUARE D'ESTIENNE D'ORVES",
    "categorie": "Murs vegetalises",
    "surface": 10,
    "arrondissement": 9,
    "lat": 48.87684858213522,
    "lon": 2.331182229597741
  },
  {
    "nom": "JARDINIERE VERTICALE DU SQUARE DE LA MONTGOLFIERE",
    "categorie": "Murs vegetalises",
    "surface": 19,
    "arrondissement": 13,
    "lat": 48.826959496835975,
    "lon": 2.353951931803362
  },
  {
    "nom": "JARDINIERE VERTICALE DU JARDIN LIONEL ASSOUAD",
    "categorie": "Murs vegetalises",
    "surface": 11,
    "arrondissement": 14,
    "lat": 48.82799642988286,
    "lon": 2.323464833753042
  },
  {
    "nom": "JARDINIERE VERTICALE DU SQUARE PATURLE",
    "categorie": "Murs vegetalises",
    "surface": 6,
    "arrondissement": 14,
    "lat": 48.828668232549674,
    "lon": 2.306947092971932
  },
  {
    "nom": "JARDINIERE VERTICALE DU SQUARE CARLO SARRABEZOLLES 3",
    "categorie": "Murs vegetalises",
    "surface": 18,
    "arrondissement": 15,
    "lat": 48.837418363693615,
    "lon": 2.271926570923772
  },
  {
    "nom": "JARDINIERE VERTICALE DU SQUARE ANTOINE BLONDIN 3",
    "categorie": "Murs vegetalises",
    "surface": 60,
    "arrondissement": 20,
    "lat": 48.860961179100194,
    "lon": 2.405701181515906
  },
  {
    "nom": "JARDINIERE VERTICALE DU PARC DE BELLEVILLE",
    "categorie": "Murs vegetalises",
    "surface": 160,
    "arrondissement": 20,
    "lat": 48.8716213781605,
    "lon": 2.3845179622853974
  },
  {
    "nom": "JARDIN DU GRAND PAVOIS",
    "categorie": "Jardin",
    "surface": 2280,
    "arrondissement": 15,
    "lat": 48.837190668700394,
    "lon": 2.282005267100305
  },
  {
    "nom": "JARDINIERE VERTICALE DU 2 RUE DE LA CLOTURE",
    "categorie": "Murs vegetalises",
    "surface": 171,
    "arrondissement": 19,
    "lat": 48.897506063124915,
    "lon": 2.391892863115066
  },
  {
    "nom": "JARDINIERES DE LA RUE RIQUET",
    "categorie": "Jardiniere",
    "surface": 329,
    "arrondissement": 19,
    "lat": 48.88829673663354,
    "lon": 2.3753659435416545
  },
  {
    "nom": "JARDINIERES EVQ DE LA RUE DU DOCTEUR BOURNEVILLE",
    "categorie": "Jardiniere",
    "surface": 406,
    "arrondissement": 13,
    "lat": 48.81844885839675,
    "lon": 2.3585876557823893
  },
  {
    "nom": "JARDINIERES EVQ DE LA  RUE PELLEPORT",
    "categorie": "Jardiniere",
    "surface": 260,
    "arrondissement": 20,
    "lat": 48.87032806321827,
    "lon": 2.3995506159425917
  },
  {
    "nom": "JARDINIERE EVQ DE LA RUE ALPHONSE BAUDIN",
    "categorie": "Jardiniere",
    "surface": 195,
    "arrondissement": 11,
    "lat": 48.860512980006455,
    "lon": 2.3705577128152737
  },
  {
    "nom": "JARDINIERES EVQ DE LA RUE CRESPIN DU GAST",
    "categorie": "Jardiniere",
    "surface": 220,
    "arrondissement": 11,
    "lat": 48.86591139860727,
    "lon": 2.3818255187845714
  },
  {
    "nom": "JARDINIERES DU SQUARE DE LA SALAMANDRE",
    "categorie": "Jardiniere",
    "surface": 731,
    "arrondissement": 20,
    "lat": 48.8579015605205,
    "lon": 2.4058613598651686
  },
  {
    "nom": "PROMENADE PC 12 - DAUMESNIL - SAHEL",
    "categorie": "Promenade",
    "surface": 11886,
    "arrondissement": 12,
    "lat": 48.838468901488596,
    "lon": 2.406751045033287
  },
  {
    "nom": "SQUARE GUSTAVE MESUREUR",
    "categorie": "Square",
    "surface": 3200,
    "arrondissement": 13,
    "lat": 48.833740704703175,
    "lon": 2.362371217923706
  },
  {
    "nom": "JARDINS DES CHAMPS ELYSEES- SQUARE DE BERLIN- WILLY BRANDT",
    "categorie": "Jardin",
    "surface": 1096,
    "arrondissement": 8,
    "lat": 48.867149123822934,
    "lon": 2.31067213356462
  },
  {
    "nom": "JARDIN  DE KYIV",
    "categorie": "Jardin",
    "surface": 6489,
    "arrondissement": 8,
    "lat": 48.86537621412126,
    "lon": 2.314655443481093
  },
  {
    "nom": "JARDINIERES RAE 69 RUE CHAMPIONNET",
    "categorie": "Jardiniere",
    "surface": 357,
    "arrondissement": 18,
    "lat": 48.89582647263287,
    "lon": 2.3448242966797195
  },
  {
    "nom": "JARDINET DE LA RUE DE L'AMIRAL MOUCHEZ",
    "categorie": "Jardinet",
    "surface": 177,
    "arrondissement": 14,
    "lat": 48.821402097468805,
    "lon": 2.3423113463493554
  },
  {
    "nom": "JARDINIERE VERTICALE DU SQUARE SUZANNE BUISSON",
    "categorie": "Murs vegetalises",
    "surface": 30,
    "arrondissement": 18,
    "lat": 48.88848482170043,
    "lon": 2.3369950635221337
  },
  {
    "nom": "PARC DE BERCY",
    "categorie": "Parc",
    "surface": 80447,
    "arrondissement": 12,
    "lat": 48.835241911280086,
    "lon": 2.382326337765586
  },
  {
    "nom": "JARDINIERE VERTICALE DU 58 RUE DE CHARONNE",
    "categorie": "Murs vegetalises",
    "surface": null,
    "arrondissement": 11,
    "lat": 48.85309901600344,
    "lon": 2.378171957091284
  },
  {
    "nom": "JARDINIERES DE LA RUE ADOLPHE MILLE",
    "categorie": "Jardiniere",
    "surface": 650,
    "arrondissement": 19,
    "lat": 48.888516158663535,
    "lon": 2.3885564166117748
  },
  {
    "nom": "JARDINIERE DE LA PLACE JEAN-BAPTISTE CLEMENT",
    "categorie": "Jardiniere",
    "surface": 458,
    "arrondissement": 18,
    "lat": 48.88663246614148,
    "lon": 2.338898935386413
  },
  {
    "nom": "JARDIN HANS ET SOPHIE SCHOLL",
    "categorie": "Jardin",
    "surface": 10355,
    "arrondissement": 17,
    "lat": 48.900009420308685,
    "lon": 2.320889714169563
  },
  {
    "nom": "PELOUSE PLACE DU GENERAL CATROUX-OUEST (ALEXANDRE DUMAS PERE)",
    "categorie": "Pelouse",
    "surface": 475,
    "arrondissement": 17,
    "lat": 48.88299112005179,
    "lon": 2.309568081685045
  },
  {
    "nom": "JARDINIERES QUAI DE  LA RAPPE ANGLE BOULEVARD BASTILLE",
    "categorie": "Jardiniere",
    "surface": 525,
    "arrondissement": 12,
    "lat": 48.846889090966584,
    "lon": 2.3667547410114333
  },
  {
    "nom": "JARDINIERE ANGLE DES RUES KUSS - BRILLAT-SAVARIN",
    "categorie": "Jardiniere",
    "surface": 206,
    "arrondissement": 13,
    "lat": 48.82208048150592,
    "lon": 2.3507352145291334
  },
  {
    "nom": "JARDINIERE DE LA RUE LOUISE HERVIEU",
    "categorie": "Jardiniere",
    "surface": 77,
    "arrondissement": 12,
    "lat": 48.84233535916731,
    "lon": 2.384914703833464
  },
  {
    "nom": "JARDIN ARNAUD BELTRAME",
    "categorie": "Jardin",
    "surface": 2100,
    "arrondissement": 3,
    "lat": 48.85738872996949,
    "lon": 2.3667498899485393
  },
  {
    "nom": "JARDINIERES RAE PHILIPPE DE GIRARD",
    "categorie": "Jardiniere",
    "surface": 160,
    "arrondissement": 18,
    "lat": 48.88636581490543,
    "lon": 2.361034443640271
  },
  {
    "nom": "JARDINIERES DE LA PLACE FRANCOISE DORIN",
    "categorie": "Jardiniere",
    "surface": 80,
    "arrondissement": 17,
    "lat": 48.88922187579575,
    "lon": 2.3141591180127397
  },
  {
    "nom": "JARDINIERE DE LA RUE DU PREVOT",
    "categorie": "Jardiniere",
    "surface": 3,
    "arrondissement": 4,
    "lat": 48.855013648111495,
    "lon": 2.3599514675318867
  },
  {
    "nom": "JARDINIERES EVQ DE LA RUE AMBROISE PARE",
    "categorie": "Jardiniere",
    "surface": null,
    "arrondissement": 10,
    "lat": 48.88212056565467,
    "lon": 2.351405720129314
  },
  {
    "nom": "JARDINIERES VELORUE DU CANAL SAINT MARTIN",
    "categorie": "Jardiniere",
    "surface": null,
    "arrondissement": 10,
    "lat": 48.87506175536581,
    "lon": 2.3631679506371093
  },
  {
    "nom": "JARDINIERE VERTICALE DU 20 RUE DES VINAIGRIERS",
    "categorie": "Murs vegetalises",
    "surface": null,
    "arrondissement": 10,
    "lat": 48.87312462654129,
    "lon": 2.363444277899732
  },
  {
    "nom": "JARDINIERE ANGLE DES RUES LOUISE WEISS CHEVALERET",
    "categorie": "Jardiniere",
    "surface": null,
    "arrondissement": 13,
    "lat": 48.832645759353575,
    "lon": 2.3711611550776976
  },
  {
    "nom": "JARDINIERES DE LA RUE ROLLIN",
    "categorie": "Jardiniere",
    "surface": 8,
    "arrondissement": 5,
    "lat": 48.84453038917636,
    "lon": 2.352100493532919
  },
  {
    "nom": "JARDINIERES DE LA RUE DE NICE",
    "categorie": "Jardiniere",
    "surface": 83,
    "arrondissement": 11,
    "lat": 48.85464797590166,
    "lon": 2.3907082180888195
  },
  {
    "nom": "PARC DES RIVES DE SEINE",
    "categorie": "Parc",
    "surface": 4769,
    "arrondissement": 4,
    "lat": 48.854530255258496,
    "lon": 2.3530025625519264
  },
  {
    "nom": "JARDINIERES DE LA RUE LEBOUIS",
    "categorie": null,
    "surface": null,
    "arrondissement": 14,
    "lat": 48.83694744809795,
    "lon": 2.3214768027302313
  },
  {
    "nom": "JARDINIERE RAE DE LA RUE DECAMPS",
    "categorie": "Jardiniere",
    "surface": null,
    "arrondissement": 16,
    "lat": 48.8652280901055,
    "lon": 2.2825500755398425
  },
  {
    "nom": "JARDINIERE DE LA RUE DE LAGNY",
    "categorie": "Jardiniere",
    "surface": 200,
    "arrondissement": 20,
    "lat": 48.849197051441635,
    "lon": 2.415052280347844
  },
  {
    "nom": "JARDINIERE VERTICALE DU 25 RUE DU CHATEAU LANDON",
    "categorie": "Murs vegetalises",
    "surface": null,
    "arrondissement": 10,
    "lat": 48.88253456071082,
    "lon": 2.363553996357872
  },
  {
    "nom": "SQUARE JEAN MORIN",
    "categorie": "Square",
    "surface": 2479,
    "arrondissement": 12,
    "lat": 48.83867696828873,
    "lon": 2.388915313434033
  },
  {
    "nom": "JARDINIERE VERTICALE DU 53 RUE DES RONDEAUX",
    "categorie": "Murs vegetalises",
    "surface": null,
    "arrondissement": 20,
    "lat": 48.862178411168856,
    "lon": 2.398506784299209
  },
  {
    "nom": "PLATE BANDE DE LA RUE DES BERNARDINS",
    "categorie": "Plate-bande",
    "surface": 118,
    "arrondissement": 5,
    "lat": 48.850870116773635,
    "lon": 2.3510087754725566
  },
  {
    "nom": "JARDINET DE LA RUE CAIL",
    "categorie": "Jardinet",
    "surface": 25,
    "arrondissement": 10,
    "lat": 48.882896636946064,
    "lon": 2.359276105822046
  },
  {
    "nom": "JARDINET DU PASSAGE DES ABBESSES",
    "categorie": "Jardinet",
    "surface": 461,
    "arrondissement": 18,
    "lat": 48.88526748309977,
    "lon": 2.3385379094685854
  },
  {
    "nom": "JARDINET DU MONUMENT AUX MORTS DE LA MAIRIE DU 15EME",
    "categorie": "Jardinet",
    "surface": 177,
    "arrondissement": 15,
    "lat": 48.84135883865651,
    "lon": 2.2993907899750736
  },
  {
    "nom": "JARDINETS DE L'ESPACE PUBLIC T1",
    "categorie": "Jardinet",
    "surface": 1461,
    "arrondissement": 13,
    "lat": 48.83585874903088,
    "lon": 2.3735325186950345
  },
  {
    "nom": "PLATE BANDE DE LA RUE COGNACQ-JAY",
    "categorie": "Plate-bande",
    "surface": 852,
    "arrondissement": 7,
    "lat": 48.86180095786342,
    "lon": 2.3038747442893106
  },
  {
    "nom": "ECOLE D'HORTICULTURE DU BREUIL ARBORETUM",
    "categorie": "Arboretum",
    "surface": null,
    "arrondissement": 12,
    "lat": 48.82139684881179,
    "lon": 2.4566548223567266
  },
  {
    "nom": "JARDINIERES DE LA RUE DU MONT CENIS",
    "categorie": "Jardiniere",
    "surface": 8,
    "arrondissement": 18,
    "lat": 48.88958020961126,
    "lon": 2.3427927283271868
  },
  {
    "nom": "JARDIN LUC HOFFMANN",
    "categorie": "Jardin",
    "surface": 6638,
    "arrondissement": 19,
    "lat": 48.88674624509649,
    "lon": 2.3705036049494175
  },
  {
    "nom": "03-08",
    "categorie": "Talus",
    "surface": null,
    "arrondissement": 14,
    "lat": 48.816309504786766,
    "lon": 2.3433235945845063
  },
  {
    "nom": "JARDINET DE LA PLACE DU DOCTEUR YERSIN",
    "categorie": "Jardinet",
    "surface": 950,
    "arrondissement": 13,
    "lat": 48.820351775180036,
    "lon": 2.372345704144291
  },
  {
    "nom": "JARDIN DU 60 RUE DE LA JUSTICE",
    "categorie": "Jardin",
    "surface": 416,
    "arrondissement": 20,
    "lat": 48.86829230387095,
    "lon": 2.40853055999283
  },
  {
    "nom": "MAIL DE LA RUE MODIGLIANI",
    "categorie": "Mail",
    "surface": 5038,
    "arrondissement": 15,
    "lat": 48.83849963395887,
    "lon": 2.2796334144201413
  },
  {
    "nom": "SQUARE DU QUAI DE LA SEINE",
    "categorie": "Square",
    "surface": 250,
    "arrondissement": 19,
    "lat": 48.886822213389706,
    "lon": 2.3751418472455037
  },
  {
    "nom": "JARDINET DE L'EGLISE NOTRE DAME DE CLIGNANCOURT",
    "categorie": "Jardinet",
    "surface": 754,
    "arrondissement": 18,
    "lat": 48.893061524696044,
    "lon": 2.344994389355386
  },
  {
    "nom": "35-08",
    "categorie": "Talus",
    "surface": null,
    "arrondissement": 12,
    "lat": 48.82668104689696,
    "lon": 2.3906940232412075
  },
  {
    "nom": "JARDINIERES DE L'AVENUE D'ITALIE - MOULIN DE LA POINTE",
    "categorie": "Jardiniere",
    "surface": 40,
    "arrondissement": 13,
    "lat": 48.82141425951372,
    "lon": 2.358475907243242
  },
  {
    "nom": "04-04",
    "categorie": "Talus",
    "surface": null,
    "arrondissement": 14,
    "lat": 48.816959531802425,
    "lon": 2.3350061200811774
  },
  {
    "nom": "06-00",
    "categorie": "Talus",
    "surface": null,
    "arrondissement": 14,
    "lat": 48.82339278437723,
    "lon": 2.3099489338874717
  },
  {
    "nom": "13-00",
    "categorie": "Talus",
    "surface": null,
    "arrondissement": 16,
    "lat": 48.85916035303319,
    "lon": 2.2615889852767026
  },
  {
    "nom": "PROMENADE DU COURS ALBERT 1ER",
    "categorie": "Promenade",
    "surface": 4949,
    "arrondissement": 8,
    "lat": 48.86434601131134,
    "lon": 2.30667375201206
  },
  {
    "nom": "SQUARE ANDRE LEFEVRE",
    "categorie": "Square",
    "surface": 758,
    "arrondissement": 5,
    "lat": 48.8516447840239,
    "lon": 2.3455575386795005
  },
  {
    "nom": "JARDINIERES DE LA PLACE DE LA PORTE DE BAGNOLET",
    "categorie": "Jardiniere",
    "surface": 178,
    "arrondissement": 20,
    "lat": 48.8649104021715,
    "lon": 2.4091891361383366
  },
  {
    "nom": "SQUARE D'ESTIENNE D'ORVES",
    "categorie": "Square",
    "surface": 3164,
    "arrondissement": 9,
    "lat": 48.87674498790556,
    "lon": 2.3316282200485166
  },
  {
    "nom": "SQUARE ROBERT BAJAC",
    "categorie": "Square",
    "surface": 3700,
    "arrondissement": 13,
    "lat": 48.818554588591795,
    "lon": 2.3589297588229385
  },
  {
    "nom": "JARDINET RUE DE GERGOVIE",
    "categorie": "Jardinet",
    "surface": 25,
    "arrondissement": 14,
    "lat": 48.8347018792079,
    "lon": 2.3132307909415615
  },
  {
    "nom": "JARDINIERES DE LA RUE ALBERT EINSTEIN",
    "categorie": "Jardiniere",
    "surface": 85,
    "arrondissement": 13,
    "lat": 48.826808225235006,
    "lon": 2.382160753402898
  },
  {
    "nom": "JARDINIERE VERTICALE DU 12 PASSAGE DES RECOLLETS",
    "categorie": "Murs vegetalises",
    "surface": null,
    "arrondissement": 10,
    "lat": 48.873899469690755,
    "lon": 2.3604101019111456
  },
  {
    "nom": "CIMETIERE PARISIEN  DE PANTIN",
    "categorie": "Cimetière",
    "surface": 1076000,
    "arrondissement": 0,
    "lat": 48.90588197773309,
    "lon": 2.4107594743663974
  },
  {
    "nom": "JARDINIERE DU BOULEVARD AUGUSTE BLANQUI",
    "categorie": "Jardiniere",
    "surface": 19,
    "arrondissement": 13,
    "lat": 48.83041060623022,
    "lon": 2.353510367700198
  },
  {
    "nom": "JARDINIERE DE LA RUE ANDRE GILL",
    "categorie": "Jardiniere",
    "surface": 20,
    "arrondissement": 18,
    "lat": 48.882845732234536,
    "lon": 2.3402936780934422
  },
  {
    "nom": "PLATE-BANDE DU SEPARATEUR DE L'AVENUE DAUSMESNIL",
    "categorie": "Plate-bande",
    "surface": 105,
    "arrondissement": 12,
    "lat": 48.847899871707455,
    "lon": 2.3741219383139365
  },
  {
    "nom": "JARDINIERE DU SQUARE ALICE",
    "categorie": "Jardiniere",
    "surface": 25,
    "arrondissement": 14,
    "lat": 48.82659527361646,
    "lon": 2.3142332486045447
  },
  {
    "nom": "ESPACE VERT DU TEP JESSE OWENS",
    "categorie": "Espace Vert",
    "surface": 2927,
    "arrondissement": 18,
    "lat": 48.89520037324179,
    "lon": 2.3349400882960065
  },
  {
    "nom": "PROMENADE D'AUSTRALIE 15E",
    "categorie": "Promenade",
    "surface": 8147,
    "arrondissement": 15,
    "lat": 48.856364473162024,
    "lon": 2.289705814182101
  },
  {
    "nom": "31-06",
    "categorie": "Talus",
    "surface": null,
    "arrondissement": 20,
    "lat": 48.84778203031748,
    "lon": 2.4150087301036813
  },
  {
    "nom": "23-13",
    "categorie": "Talus",
    "surface": null,
    "arrondissement": 18,
    "lat": 48.90029310718981,
    "lon": 2.360662310338788
  },
  {
    "nom": "JARDIN PARTAGE 6-8 RUE DE L'OURCQ",
    "categorie": "Jardin partage",
    "surface": 198,
    "arrondissement": 19,
    "lat": 48.88801997788487,
    "lon": 2.384634734485179
  },
  {
    "nom": "JARDINIERES DE LA RUE DE L'UNIVERSITE",
    "categorie": "Jardiniere",
    "surface": 18,
    "arrondissement": 7,
    "lat": 48.85968337827743,
    "lon": 2.3222948903170586
  },
  {
    "nom": "JARDINIERES EVQ DE LA RUE LABAT",
    "categorie": "Jardiniere",
    "surface": 63,
    "arrondissement": 18,
    "lat": 48.88926669685125,
    "lon": 2.3488007798681925
  },
  {
    "nom": "06-02",
    "categorie": "Talus",
    "surface": null,
    "arrondissement": 14,
    "lat": 48.823885217924904,
    "lon": 2.3076534128637456
  },
  {
    "nom": "SQUARE DU DOCTEUR CALMETTE",
    "categorie": "Square",
    "surface": 11760,
    "arrondissement": 15,
    "lat": 48.82865122944027,
    "lon": 2.2977784495450417
  },
  {
    "nom": "SQUARE RAYMOND QUENEAU",
    "categorie": "Square",
    "surface": 1645,
    "arrondissement": 18,
    "lat": 48.89590150868796,
    "lon": 2.361002358972538
  },
  {
    "nom": "JARDIN DES SERRES D'AUTEUIL",
    "categorie": "Jardin",
    "surface": 52100,
    "arrondissement": 16,
    "lat": 48.846684669707834,
    "lon": 2.2526830864582257
  },
  {
    "nom": "JARDINIERES DE L'AVENUE BOUTROUX",
    "categorie": "Jardiniere",
    "surface": 88,
    "arrondissement": 13,
    "lat": 48.82243234732657,
    "lon": 2.3753621470243393
  },
  {
    "nom": "SQUARE EDOUARD VAILLANT",
    "categorie": "Square",
    "surface": 8085,
    "arrondissement": 20,
    "lat": 48.86552531021967,
    "lon": 2.400215809614939
  },
  {
    "nom": "SQUARE DES SAINTS-SIMONIENS - MENILMONTANT",
    "categorie": "Square",
    "surface": 9050,
    "arrondissement": 20,
    "lat": 48.87062110085808,
    "lon": 2.396687561583207
  },
  {
    "nom": "JARDIN NATUREL-PIERRE EMMANUEL",
    "categorie": "Jardin",
    "surface": 6300,
    "arrondissement": 20,
    "lat": 48.85889376138732,
    "lon": 2.3993945059649113
  },
  {
    "nom": "JARDINIERE RUE DE MEAUX",
    "categorie": "Jardiniere",
    "surface": 30,
    "arrondissement": 19,
    "lat": 48.883303530807105,
    "lon": 2.3768275839889568
  },
  {
    "nom": "DECORATION DE LA TOUR EIFFEL",
    "categorie": "Decoration",
    "surface": 147,
    "arrondissement": 7,
    "lat": 48.85829139240809,
    "lon": 2.294456296673416
  },
  {
    "nom": "JARDINIERE DE LA PLACE DE MEXICO",
    "categorie": "Jardiniere",
    "surface": 16,
    "arrondissement": 16,
    "lat": 48.86549112558516,
    "lon": 2.2833131619751446
  },
  {
    "nom": "JARDINIERES DE LA RUE DU MONT CENIS",
    "categorie": "Jardiniere",
    "surface": 14,
    "arrondissement": 18,
    "lat": 48.889441734932106,
    "lon": 2.3426925439706445
  },
  {
    "nom": "JARDINIERE DU SQUARE DU PETIT BOIS",
    "categorie": "Jardiniere",
    "surface": 244,
    "arrondissement": 19,
    "lat": 48.8857678264435,
    "lon": 2.392821271482508
  },
  {
    "nom": "JARDINIERES DE LA RUE CHARLES MONSELET",
    "categorie": "Jardiniere",
    "surface": 225,
    "arrondissement": 19,
    "lat": 48.87958799026242,
    "lon": 2.4005422744810296
  },
  {
    "nom": "JARDINIERES DE LA CITE DE LA MUSIQUE",
    "categorie": "Jardiniere",
    "surface": 320,
    "arrondissement": 19,
    "lat": 48.896427601691244,
    "lon": 2.393039403243808
  },
  {
    "nom": "32-02",
    "categorie": "Talus",
    "surface": null,
    "arrondissement": 12,
    "lat": 48.84274487103842,
    "lon": 2.414118697076326
  },
  {
    "nom": "23-27",
    "categorie": "Talus",
    "surface": null,
    "arrondissement": 18,
    "lat": 48.90051155548636,
    "lon": 2.3688248645403434
  },
  {
    "nom": "17-99-08",
    "categorie": "Talus",
    "surface": 240,
    "arrondissement": 17,
    "lat": 48.87990611730879,
    "lon": 2.281126235705203
  },
  {
    "nom": "13-07",
    "categorie": "Talus",
    "surface": null,
    "arrondissement": 16,
    "lat": 48.859341325215034,
    "lon": 2.2630427768909835
  },
  {
    "nom": "15-02",
    "categorie": "Talus",
    "surface": null,
    "arrondissement": 16,
    "lat": 48.86637940753331,
    "lon": 2.2681005168112627
  },
  {
    "nom": "JARDINIERE VERTICALE DU 36 RUE NICOLAI",
    "categorie": "Murs vegetalises",
    "surface": null,
    "arrondissement": 12,
    "lat": 48.83682595108694,
    "lon": 2.395310319676235
  },
  {
    "nom": "TALUS DU QUAI D'ISSY LES MOULINEAUX",
    "categorie": "Talus",
    "surface": 7600,
    "arrondissement": 15,
    "lat": 48.83627395313973,
    "lon": 2.2678254208293893
  },
  {
    "nom": "JARDINIERES DE LA RUE MOURAUD",
    "categorie": "Jardiniere",
    "surface": 80,
    "arrondissement": 20,
    "lat": 48.85509870626048,
    "lon": 2.407723991005192
  },
  {
    "nom": "JARDIN DE L'HOPITAL SAINT-LOUIS",
    "categorie": "Jardin",
    "surface": 9400,
    "arrondissement": 10,
    "lat": 48.873298238633666,
    "lon": 2.3675491589148683
  },
  {
    "nom": "JARDINIERES DE LA RUE DES MARTYRS",
    "categorie": "Jardiniere",
    "surface": 190,
    "arrondissement": 9,
    "lat": 48.88171615286355,
    "lon": 2.339845072881011
  },
  {
    "nom": "JARDINIERE VERTICALE DE LA RUE THEODORE HAMONT",
    "categorie": "Murs vegetalises",
    "surface": null,
    "arrondissement": 12,
    "lat": 48.83301822800293,
    "lon": 2.397469902099835
  },
  {
    "nom": "JARDIN PARTAGE DU SQUARE RENE LE GALL",
    "categorie": "Jardin partage",
    "surface": 200,
    "arrondissement": 13,
    "lat": 48.834658044127785,
    "lon": 2.350089091847215
  },
  {
    "nom": "JARDINIERE DU PARVIS DE L'EGLISE NOTRE-DAME DE LORETTE",
    "categorie": "Jardiniere",
    "surface": 20,
    "arrondissement": 9,
    "lat": 48.87604028560109,
    "lon": 2.338765176234674
  },
  {
    "nom": "JARDINIERE VERTICALE DU PARC OMNISPORT SUZANNE LENGLEN",
    "categorie": "Murs vegetalises",
    "surface": 2125,
    "arrondissement": 15,
    "lat": 48.828854050320736,
    "lon": 2.268531458166648
  },
  {
    "nom": "JARDINIERES DE LA PROMENADE SPORTIVE DU BOULEVARD DE CHARONNE",
    "categorie": "Jardiniere",
    "surface": 1040,
    "arrondissement": 11,
    "lat": 48.85490022358055,
    "lon": 2.394873246951569
  },
  {
    "nom": "JARDINIERES DE LA RUE EVA KOTCHEVER",
    "categorie": "Jardiniere",
    "surface": 186,
    "arrondissement": 18,
    "lat": 48.89749542761658,
    "lon": 2.357120742873775
  },
  {
    "nom": "JARDINIERES DE LA RUE DE LA CONCERTATION",
    "categorie": "Jardiniere",
    "surface": 160,
    "arrondissement": 18,
    "lat": 48.8963738424581,
    "lon": 2.3574616510379993
  },
  {
    "nom": "JARDINIERES EVQ DE LA RUE ERARD",
    "categorie": "Jardiniere",
    "surface": 600,
    "arrondissement": 12,
    "lat": 48.845835097783876,
    "lon": 2.385220753097234
  },
  {
    "nom": "JARDINET DE LA RUE ALPHONSE BAUDIN",
    "categorie": "Jardinet",
    "surface": 400,
    "arrondissement": 11,
    "lat": 48.86086418704039,
    "lon": 2.370203042270732
  },
  {
    "nom": "JARDINIERE VERTICALE DU SQUARE DE L'ASPIRANT DUNAND 2",
    "categorie": "Murs vegetalises",
    "surface": 41,
    "arrondissement": 14,
    "lat": 48.83173786541303,
    "lon": 2.326110574243621
  },
  {
    "nom": "JARDINIERE VERTICALE DU SQUARE SAINT-LAMBERT 1",
    "categorie": "Murs vegetalises",
    "surface": 103,
    "arrondissement": 15,
    "lat": 48.84175533493396,
    "lon": 2.297105444638487
  },
  {
    "nom": "JARDINIERES DE LA RUE DE BELLEVUE",
    "categorie": "Jardiniere",
    "surface": 90,
    "arrondissement": 19,
    "lat": 48.87943060850907,
    "lon": 2.3944130922374027
  },
  {
    "nom": "JARDINIERES DE LA RUE DU DELTA",
    "categorie": "Jardiniere",
    "surface": 120,
    "arrondissement": 9,
    "lat": 48.88244622708197,
    "lon": 2.348324275947038
  },
  {
    "nom": "JARDINIERES EVQ DE LA RUE ANTOINE DUBOIS",
    "categorie": "Jardiniere",
    "surface": 67,
    "arrondissement": 6,
    "lat": 48.85123207158263,
    "lon": 2.339886730744027
  },
  {
    "nom": "JARDINIERES RAE DE LA RUE EDOUARD PAILLERON",
    "categorie": "Jardiniere",
    "surface": 446,
    "arrondissement": 19,
    "lat": 48.88136005664681,
    "lon": 2.3797164681256957
  },
  {
    "nom": "JARDINIERES LEDRU ROLLIN",
    "categorie": "Jardiniere",
    "surface": 302,
    "arrondissement": 12,
    "lat": 48.84760391484445,
    "lon": 2.370689060643019
  },
  {
    "nom": "JARDINIERES EVQ DE LA  RUE EVARISTE GALOIS",
    "categorie": "Jardiniere",
    "surface": 110,
    "arrondissement": 20,
    "lat": 48.87359887074312,
    "lon": 2.4131702582886465
  },
  {
    "nom": "JARDINIERES EVQ DE LA RUE DE MEAUX",
    "categorie": "Jardiniere",
    "surface": null,
    "arrondissement": 19,
    "lat": 48.88386297371817,
    "lon": 2.377775866784651
  },
  {
    "nom": "JARDINIERES VGA DE LA RUE DE  LAGNY",
    "categorie": "Jardiniere",
    "surface": 1293,
    "arrondissement": 20,
    "lat": 48.848906305733124,
    "lon": 2.4040731644283566
  },
  {
    "nom": "JARDINIERES DE LA RUE THIMONNIER",
    "categorie": "Jardiniere",
    "surface": null,
    "arrondissement": 9,
    "lat": 48.879996603604745,
    "lon": 2.347344357600186
  },
  {
    "nom": "JARDINIERES EVQ DE LA RUE DE TOURNON",
    "categorie": "Jardiniere",
    "surface": 275,
    "arrondissement": 6,
    "lat": 48.85014930455732,
    "lon": 2.3372257475217832
  },
  {
    "nom": "JARDINIERES DE LA RUE DE PETRELLE",
    "categorie": "Jardiniere",
    "surface": null,
    "arrondissement": 9,
    "lat": 48.880479829863155,
    "lon": 2.3495243573471485
  },
  {
    "nom": "JARDINIERES RAE DE LA RUE JEAN DOLENT",
    "categorie": "Jardiniere",
    "surface": 124,
    "arrondissement": 14,
    "lat": 48.833304467494365,
    "lon": 2.340108069951801
  },
  {
    "nom": "JARDINIERES EVQ DE LA RUE VANDAMME",
    "categorie": "Jardiniere",
    "surface": null,
    "arrondissement": 14,
    "lat": 48.83962320014409,
    "lon": 2.3233724085731793
  },
  {
    "nom": "JARDINS DES CHAMPS ELYSEES- CARRE DES FETES",
    "categorie": "Jardin",
    "surface": 4786,
    "arrondissement": 8,
    "lat": 48.867663232286105,
    "lon": 2.3125152932877753
  },
  {
    "nom": "JARDINIERES EVQ DE LA RUE LANTIEZ",
    "categorie": "Jardiniere",
    "surface": null,
    "arrondissement": 17,
    "lat": 48.893686939885896,
    "lon": 2.3227821683868077
  },
  {
    "nom": "SQUARE MICHEL FOUCAULT",
    "categorie": "Square",
    "surface": 550,
    "arrondissement": 5,
    "lat": 48.84933757903446,
    "lon": 2.3452284588050074
  },
  {
    "nom": "JARDINS ROSA LUXEMBURG",
    "categorie": "Jardin",
    "surface": 8350,
    "arrondissement": 18,
    "lat": 48.8887881698926,
    "lon": 2.3632398882225965
  },
  {
    "nom": "JARDINS DES CHAMPS ELYSEES- JARDIN LINE RENAUD",
    "categorie": "Jardin",
    "surface": 20390,
    "arrondissement": 8,
    "lat": 48.86719823255294,
    "lon": 2.3183518052641783
  },
  {
    "nom": "JARDINIERES RAE DE LA RUE D ORSEL",
    "categorie": "Jardiniere",
    "surface": 213,
    "arrondissement": 18,
    "lat": 48.88352394805839,
    "lon": 2.3406795498624025
  },
  {
    "nom": "JARDINIERE VERTICALE DU 4 BOULEVARD DE LA BASTILLE",
    "categorie": "Murs vegetalises",
    "surface": null,
    "arrondissement": 12,
    "lat": 48.84662923504353,
    "lon": 2.3675758582764432
  },
  {
    "nom": "JARDINIERES EVQ DU BOULEVARD SERURIER",
    "categorie": "Jardiniere",
    "surface": null,
    "arrondissement": 19,
    "lat": 48.877317660670734,
    "lon": 2.4064219112780085
  },
  {
    "nom": "JARDINIERE PLACETTE LOUCHEUR-BRUNET",
    "categorie": "Jardiniere",
    "surface": 247,
    "arrondissement": 17,
    "lat": 48.89828347232994,
    "lon": 2.325491648201452
  },
  {
    "nom": "JARDINIERE DE LA PLACE DU DOCTEUR FELIX LOBLIGEOIS",
    "categorie": "Jardiniere",
    "surface": 167,
    "arrondissement": 17,
    "lat": 48.88648502415644,
    "lon": 2.318360283009334
  },
  {
    "nom": "JARDINIERE VERTICALE DU 1 RUE RENE RAVAUD",
    "categorie": "Murs vegetalises",
    "surface": null,
    "arrondissement": 15,
    "lat": 48.83750565728489,
    "lon": 2.270217912373506
  },
  {
    "nom": "JARDINIERES DE LA RUE DES TAPISSERIES",
    "categorie": "Jardiniere",
    "surface": 1078,
    "arrondissement": 17,
    "lat": 48.88862173037132,
    "lon": 2.30758724447791
  },
  {
    "nom": "JARDINIERES VERTICALES ANGLE  DU 19 RUE DE MARSEILLE",
    "categorie": "Jardiniere",
    "surface": 2,
    "arrondissement": 10,
    "lat": 48.87188627764405,
    "lon": 2.364220393067466
  },
  {
    "nom": "JARDINIERE VERTICALE ANGLE DES RUES MORNAY ARSENAL",
    "categorie": "Murs vegetalises",
    "surface": 4,
    "arrondissement": 4,
    "lat": 48.84966610381972,
    "lon": 2.3653129511820334
  },
  {
    "nom": "05-01",
    "categorie": "Talus",
    "surface": null,
    "arrondissement": 14,
    "lat": 48.82039466390162,
    "lon": 2.3248951455742146
  },
  {
    "nom": "DECORATION DE LA PLACE LOUIS LEPINE",
    "categorie": "Decoration",
    "surface": 92,
    "arrondissement": 4,
    "lat": 48.85484968833928,
    "lon": 2.3476228587881023
  },
  {
    "nom": "JARDINIERES DU BOULEVARD MORLAND",
    "categorie": "Jardiniere",
    "surface": 30,
    "arrondissement": 4,
    "lat": 48.847225141964024,
    "lon": 2.365399597559674
  },
  {
    "nom": "JARDINIERE VERTICALE DU SQUARE HENRI GALLI",
    "categorie": "Murs vegetalises",
    "surface": 195,
    "arrondissement": 4,
    "lat": 48.85132626678247,
    "lon": 2.361753088217656
  },
  {
    "nom": "JARDINIERES EVQ DE LA RUE ALEXANDRE CHARPENTIER",
    "categorie": "Jardiniere",
    "surface": 210,
    "arrondissement": 17,
    "lat": 48.88432555389952,
    "lon": 2.288002525267952
  },
  {
    "nom": "ARCHIPEL DES BERGES DE LA SEINE - NIKI DE SAINT-PHALLE",
    "categorie": "Archipel",
    "surface": 1840,
    "arrondissement": 7,
    "lat": 48.863111408605626,
    "lon": 2.304656082944712
  },
  {
    "nom": "JARDINET DE LA PLACE JACQUES BAINVILLE",
    "categorie": "Jardinet",
    "surface": 300,
    "arrondissement": 7,
    "lat": 48.85859593119711,
    "lon": 2.3224308582450486
  },
  {
    "nom": "JARDIN DU PERE ARMAND DAVID",
    "categorie": "Jardin",
    "surface": 500,
    "arrondissement": 6,
    "lat": 48.84779534321633,
    "lon": 2.322149154962363
  },
  {
    "nom": "PLATE-BANDE DE LA RUE FROIDEVAUX",
    "categorie": "Plate-bande",
    "surface": 1837,
    "arrondissement": 14,
    "lat": 48.83644125518589,
    "lon": 2.3266366559248555
  },
  {
    "nom": "JARDIN PARTAGE DU 38 QUAI DE LA MARNE",
    "categorie": "Jardin partage",
    "surface": 1050,
    "arrondissement": 19,
    "lat": 48.890248650597904,
    "lon": 2.38453676642261
  },
  {
    "nom": "JARDINIERES DEVANT LE SQUARE DE PARODI",
    "categorie": "Jardiniere",
    "surface": 1751,
    "arrondissement": 16,
    "lat": 48.87759527643291,
    "lon": 2.2819406997640868
  },
  {
    "nom": "JARDINIERES EVQ DES RUES FENELON ET BOSSUET",
    "categorie": "Jardiniere",
    "surface": null,
    "arrondissement": 10,
    "lat": 48.87929098336551,
    "lon": 2.351708987913681
  },
  {
    "nom": "JARDINIERES DE LA RUE ETEX",
    "categorie": "Jardiniere",
    "surface": null,
    "arrondissement": 18,
    "lat": 48.89010630025333,
    "lon": 2.3291489686451823
  },
  {
    "nom": "JARDINIERES DE LA RUE LEPIC",
    "categorie": null,
    "surface": null,
    "arrondissement": 18,
    "lat": 48.884057560374785,
    "lon": 2.332929877524587
  },
  {
    "nom": "JARDINIERE VERTICALE DU 50 RUE DE CHARONNE",
    "categorie": "Murs vegetalises",
    "surface": null,
    "arrondissement": 11,
    "lat": 48.85311342450208,
    "lon": 2.377428446315633
  },
  {
    "nom": "JARDINIERES DE LA RUE DE LA PRESENTATION",
    "categorie": "Jardiniere",
    "surface": 35,
    "arrondissement": 11,
    "lat": 48.87123868168254,
    "lon": 2.376444402800111
  },
  {
    "nom": "JARDINIERES DE L'ESPLANADE LEO HAMON",
    "categorie": "Jardiniere",
    "surface": 155,
    "arrondissement": 13,
    "lat": 48.8367646097475,
    "lon": 2.3512030448741736
  },
  {
    "nom": "SQUARE GARIBALDI",
    "categorie": "Square",
    "surface": 1377,
    "arrondissement": 15,
    "lat": 48.848455577461294,
    "lon": 2.3018550143957324
  },
  {
    "nom": "PLATE-BANDE DU CARREFOUR ALESIA - DIDOT",
    "categorie": "Plate-bande",
    "surface": 485,
    "arrondissement": 14,
    "lat": 48.83029615486253,
    "lon": 2.3184325074002787
  },
  {
    "nom": "JARDINIERE VERTICALE DU 7 RUE DE LA MARSEILLAISE (LOCAUX)",
    "categorie": "Murs vegetalises",
    "surface": null,
    "arrondissement": 19,
    "lat": 48.88803105756515,
    "lon": 2.3973623353354023
  },
  {
    "nom": "JARDINIERE ANGLE DES RUES BROCA - SAINT-HIPPOLYTE",
    "categorie": "Jardiniere",
    "surface": 40,
    "arrondissement": 13,
    "lat": 48.836179861163984,
    "lon": 2.3469024545366977
  },
  {
    "nom": "CIMETIERE PARISIEN DE LA CHAPELLE",
    "categorie": "Cimetière",
    "surface": 21000,
    "arrondissement": 0,
    "lat": 48.90249163245892,
    "lon": 2.362559805562374
  },
  {
    "nom": "DECORATION DE LA PLACE DE WAGRAM",
    "categorie": "Decoration",
    "surface": 754,
    "arrondissement": 17,
    "lat": 48.887382188330335,
    "lon": 2.30471607321069
  },
  {
    "nom": "DECORATION DE L'AVENUE DE LA PORTE D'ITALIE",
    "categorie": "Decoration",
    "surface": 100,
    "arrondissement": 13,
    "lat": 48.81630636895034,
    "lon": 2.360325038490443
  },
  {
    "nom": "SQUARE ROBERT SCHUMANN",
    "categorie": "Square",
    "surface": 3559,
    "arrondissement": 16,
    "lat": 48.86912734208814,
    "lon": 2.27268376555223
  },
  {
    "nom": "21-00",
    "categorie": "Talus",
    "surface": null,
    "arrondissement": 18,
    "lat": 48.90098320433781,
    "lon": 2.3340989617722894
  },
  {
    "nom": "DECORATION DE LA RUE DE RUNGIS",
    "categorie": "Decoration",
    "surface": 148,
    "arrondissement": 13,
    "lat": 48.821752914972386,
    "lon": 2.3441803785949404
  },
  {
    "nom": "JARDIN JANIS JOPLIN",
    "categorie": "Square",
    "surface": 1885,
    "arrondissement": 20,
    "lat": 48.85166101539003,
    "lon": 2.411475934778973
  },
  {
    "nom": "MAIL EMILE BOLLAERT",
    "categorie": "Mail",
    "surface": 9160,
    "arrondissement": 19,
    "lat": 48.89994358527787,
    "lon": 2.373818869888299
  },
  {
    "nom": "SQUARE CLAUDE BERNARD",
    "categorie": "Square",
    "surface": 10100,
    "arrondissement": 19,
    "lat": 48.899293325058935,
    "lon": 2.37529094489378
  },
  {
    "nom": "07-07",
    "categorie": "Talus",
    "surface": null,
    "arrondissement": 15,
    "lat": 48.826963041227344,
    "lon": 2.295367561767649
  },
  {
    "nom": "09-08",
    "categorie": "Talus",
    "surface": null,
    "arrondissement": 15,
    "lat": 48.83479822186056,
    "lon": 2.272074933122234
  },
  {
    "nom": "09-13",
    "categorie": "Talus",
    "surface": null,
    "arrondissement": 15,
    "lat": 48.83560341390363,
    "lon": 2.2699778587717905
  },
  {
    "nom": "SQUARE HENRI KARCHER",
    "categorie": "Square",
    "surface": 2630,
    "arrondissement": 20,
    "lat": 48.85983977963803,
    "lon": 2.4007961315042707
  },
  {
    "nom": "SQUARE D'ANVERS-JEAN-CLAUDE CARRIERE",
    "categorie": "Square",
    "surface": 4610,
    "arrondissement": 9,
    "lat": 48.88217494781604,
    "lon": 2.3443762611147774
  },
  {
    "nom": "SQUARE PRIOU - VALJEAN",
    "categorie": "Square",
    "surface": 1304,
    "arrondissement": 4,
    "lat": 48.85397739333444,
    "lon": 2.3593635879191583
  },
  {
    "nom": "SQUARE GEORGES MELIES",
    "categorie": "Square",
    "surface": 3029,
    "arrondissement": 12,
    "lat": 48.84113164604244,
    "lon": 2.4098094999982083
  },
  {
    "nom": "JARDIN LIONEL ASSOUAD",
    "categorie": "Jardin",
    "surface": 4750,
    "arrondissement": 14,
    "lat": 48.82793193542799,
    "lon": 2.322842120700878
  },
  {
    "nom": "JARDIN CROMOT-DU BOURG",
    "categorie": "Jardin",
    "surface": 789,
    "arrondissement": 9,
    "lat": 48.87509941790825,
    "lon": 2.3427472199573405
  },
  {
    "nom": "JARDIN FEDERICA MONTSENY",
    "categorie": "Jardin",
    "surface": 890,
    "arrondissement": 13,
    "lat": 48.83615372496458,
    "lon": 2.359892493989504
  },
  {
    "nom": "JARDIN DU MOULIN DE LA POINTE",
    "categorie": "Jardin",
    "surface": 14300,
    "arrondissement": 13,
    "lat": 48.821070056379874,
    "lon": 2.357299322891831
  },
  {
    "nom": "00-10",
    "categorie": "Talus",
    "surface": null,
    "arrondissement": 13,
    "lat": 48.82463229844558,
    "lon": 2.3848940391777553
  },
  {
    "nom": "JARDINET DU PARVIS DE LA MAIRIE DU XIIIEME",
    "categorie": "Jardinet",
    "surface": 543,
    "arrondissement": 13,
    "lat": 48.83210001468154,
    "lon": 2.3555359174355264
  },
  {
    "nom": "JARDIN SAIDA",
    "categorie": "Jardin",
    "surface": 2830,
    "arrondissement": 15,
    "lat": 48.83142889342444,
    "lon": 2.2951096773132313
  },
  {
    "nom": "JARDIN MARGUERITE HURE",
    "categorie": "Jardin d'immeubles",
    "surface": 4018,
    "arrondissement": 12,
    "lat": 48.84585406959188,
    "lon": 2.413105305682619
  },
  {
    "nom": "JARDINIERE DU SQUARE DE ROBIAC",
    "categorie": "Jardiniere",
    "surface": 16,
    "arrondissement": 7,
    "lat": 48.8578637371286,
    "lon": 2.3047905206533392
  },
  {
    "nom": "JARDINIERE DE LA RUE MAURICE GENEVOIX",
    "categorie": "Jardiniere",
    "surface": 74,
    "arrondissement": 18,
    "lat": 48.89424034947097,
    "lon": 2.3600392987219974
  },
  {
    "nom": "JARDINIERE VERTICALE DU 42 QUAI DE VALMY",
    "categorie": "Murs vegetalises",
    "surface": null,
    "arrondissement": 10,
    "lat": 48.86939643743264,
    "lon": 2.3666603126482877
  },
  {
    "nom": "JARDIN DE LA PLACE DE LA PORTE DE SAINT-CLOUD",
    "categorie": "Jardin",
    "surface": 3420,
    "arrondissement": 16,
    "lat": 48.837937820893366,
    "lon": 2.2569786554879454
  },
  {
    "nom": "JARDINET DE LA PLACE DES VINS DE FRANCE",
    "categorie": "Jardinet",
    "surface": 928,
    "arrondissement": 12,
    "lat": 48.83235602492795,
    "lon": 2.387448148383356
  },
  {
    "nom": "SQUARE PIERRE-ADRIEN DALPAYRAT",
    "categorie": "Square",
    "surface": 9898,
    "arrondissement": 15,
    "lat": 48.83788631424131,
    "lon": 2.313165074992486
  },
  {
    "nom": "JARDINIERE VERTICALE DU 26 PLACE DE BRAZZAVILLE",
    "categorie": "Murs vegetalises",
    "surface": null,
    "arrondissement": 15,
    "lat": 48.85123994106006,
    "lon": 2.28575030048679
  },
  {
    "nom": "29-06",
    "categorie": "Talus",
    "surface": null,
    "arrondissement": 20,
    "lat": 48.86399278356774,
    "lon": 2.4146939330540156
  },
  {
    "nom": "18-06",
    "categorie": "Talus",
    "surface": null,
    "arrondissement": 17,
    "lat": 48.89307560772307,
    "lon": 2.302497592494701
  },
  {
    "nom": "JARDINIERE DE LA RUE AUDUBON",
    "categorie": "Jardiniere",
    "surface": 70,
    "arrondissement": 12,
    "lat": 48.84595221525915,
    "lon": 2.3692260475935147
  },
  {
    "nom": "SQUARE DE LA RAFFINERIE SAY",
    "categorie": "Square",
    "surface": 5475,
    "arrondissement": 13,
    "lat": 48.83187685796387,
    "lon": 2.3615461272226637
  },
  {
    "nom": "JARDIN D'IMMEUBLES ALBERT BARTHOLOME - BRANCION",
    "categorie": "Jardin",
    "surface": 34180,
    "arrondissement": 15,
    "lat": 48.82794847048558,
    "lon": 2.296929715068874
  },
  {
    "nom": "SQUARE MADELEINE TRIBOLATI",
    "categorie": "Square",
    "surface": 1000,
    "arrondissement": 10,
    "lat": 48.87717327056878,
    "lon": 2.3643356337608195
  },
  {
    "nom": "JARDINET DE LA RUE BRUNESEAU",
    "categorie": "Jardinet",
    "surface": 240,
    "arrondissement": 13,
    "lat": 48.824103157833115,
    "lon": 2.3861739492889447
  },
  {
    "nom": "15-08",
    "categorie": "Talus",
    "surface": null,
    "arrondissement": 16,
    "lat": 48.87080486556817,
    "lon": 2.272297269301267
  },
  {
    "nom": "SQUARE CLOS FEUQUIERES - DESNOUETTES",
    "categorie": "Square",
    "surface": 14500,
    "arrondissement": 15,
    "lat": 48.83674424558302,
    "lon": 2.290708345347543
  },
  {
    "nom": "JARDINIERE DE LA RUE D'ARCUEIL",
    "categorie": "Jardiniere",
    "surface": 5,
    "arrondissement": 14,
    "lat": 48.81979656622669,
    "lon": 2.3429506155812097
  },
  {
    "nom": "CIMETIERE DE VAUGIRARD",
    "categorie": "Cimetière",
    "surface": 15900,
    "arrondissement": 15,
    "lat": 48.83836035493192,
    "lon": 2.2846419428489573
  },
  {
    "nom": "JARDINIERES DE LA RUE GASTON COUTE",
    "categorie": "Jardiniere",
    "surface": 54,
    "arrondissement": 18,
    "lat": 48.88898136220674,
    "lon": 2.340662996146631
  },
  {
    "nom": "JARDINIERES DE L'ESCALIER DE LA ZAC DE REUILLY",
    "categorie": "Jardiniere",
    "surface": 323,
    "arrondissement": 12,
    "lat": 48.842467488056535,
    "lon": 2.3863630800492914
  },
  {
    "nom": "JARDIN PARTAGE DU JARDIN DE LA ZAC DIDOT",
    "categorie": "Jardin partage",
    "surface": 166,
    "arrondissement": 14,
    "lat": 48.83355130067697,
    "lon": 2.319488909902921
  },
  {
    "nom": "ESPACE VERT DU BOULODROME BOUCRY",
    "categorie": "Espace Vert",
    "surface": 480,
    "arrondissement": 18,
    "lat": 48.89401792689854,
    "lon": 2.3628601585507187
  },
  {
    "nom": "JARDINIERES DU PARKING DE LA RUE ANDRE DUBOIS",
    "categorie": "Jardiniere",
    "surface": 44,
    "arrondissement": 19,
    "lat": 48.88326817734762,
    "lon": 2.3816972102761014
  },
  {
    "nom": "PLATE-BANDE DE LA RUE EUGENIE COTTON",
    "categorie": "Plate-bande",
    "surface": 216,
    "arrondissement": 19,
    "lat": 48.87853289045334,
    "lon": 2.394582824226138
  },
  {
    "nom": "JARDINIERE DE LA RUE ABEL FERRY",
    "categorie": "Jardiniere",
    "surface": 280,
    "arrondissement": 16,
    "lat": 48.83595269916455,
    "lon": 2.2609697607576678
  },
  {
    "nom": "PARC DE BELLEVILLE",
    "categorie": "Parc",
    "surface": 36000,
    "arrondissement": 20,
    "lat": 48.87122750172725,
    "lon": 2.384695599430617
  },
  {
    "nom": "27-02",
    "categorie": "Talus",
    "surface": null,
    "arrondissement": 19,
    "lat": 48.880855607946025,
    "lon": 2.4052075169812177
  },
  {
    "nom": "23-05",
    "categorie": "Talus",
    "surface": null,
    "arrondissement": 18,
    "lat": 48.89995769500523,
    "lon": 2.3595672651037036
  },
  {
    "nom": "02-02",
    "categorie": "Talus",
    "surface": null,
    "arrondissement": 13,
    "lat": 48.81603612831255,
    "lon": 2.3568816441399267
  },
  {
    "nom": "02-06",
    "categorie": "Talus",
    "surface": null,
    "arrondissement": 13,
    "lat": 48.81599815372603,
    "lon": 2.356018240924977
  },
  {
    "nom": "JARDINIERE VERTICALE DU 32 RUE DE LA TOUR D'AUVERGNE",
    "categorie": "Murs vegetalises",
    "surface": null,
    "arrondissement": 9,
    "lat": 48.879450947365115,
    "lon": 2.3425073275814055
  },
  {
    "nom": "JARDIN PARTAGE DU PARC DE CHOISY",
    "categorie": "Jardin partage",
    "surface": 100,
    "arrondissement": 13,
    "lat": 48.829192123202425,
    "lon": 2.3599085327929052
  },
  {
    "nom": "JARDINIERE VERTICALE DU 5 RUE DE CAMBRAI",
    "categorie": "Murs vegetalises",
    "surface": null,
    "arrondissement": 19,
    "lat": 48.89455961854587,
    "lon": 2.3777863393395866
  },
  {
    "nom": "JARDINIERES DU BOULEVARD DE VAUGIRARD",
    "categorie": "Jardiniere",
    "surface": 1000,
    "arrondissement": 15,
    "lat": 48.8411713429667,
    "lon": 2.3172504705773034
  },
  {
    "nom": "JARDINIERE VERTICALE DU SQUARE MAURICE GARDETTE 2",
    "categorie": "Murs vegetalises",
    "surface": 21,
    "arrondissement": 11,
    "lat": 48.861529325300666,
    "lon": 2.3786238553266843
  },
  {
    "nom": "JARDINIERE VERTICALE DU SQUARE D'ANVERS 1",
    "categorie": "Murs vegetalises",
    "surface": 12,
    "arrondissement": 9,
    "lat": 48.88193613978069,
    "lon": 2.344604987954311
  },
  {
    "nom": "JARDINIERE VERTICALE DU SQUARE MARCEL RAJMAN",
    "categorie": "Murs vegetalises",
    "surface": 40,
    "arrondissement": 11,
    "lat": 48.860387663868174,
    "lon": 2.3853913178913673
  },
  {
    "nom": "JARDINIERES DE LA MAISON DE BALZAC",
    "categorie": "Jardiniere",
    "surface": null,
    "arrondissement": 16,
    "lat": 48.85537686177448,
    "lon": 2.280760881683589
  },
  {
    "nom": "JARDINIERE DU SQUARE LEON TOLSTOI",
    "categorie": "Jardiniere",
    "surface": null,
    "arrondissement": 16,
    "lat": 48.85318205114143,
    "lon": 2.2606410446086027
  },
  {
    "nom": "JARDINIERES DE LA RUE SORBIER",
    "categorie": "Jardiniere",
    "surface": 850,
    "arrondissement": 20,
    "lat": 48.86607702725948,
    "lon": 2.3925851807998524
  },
  {
    "nom": "JARDIN D'IMMEUBLES DE LA PORTE DE BAGNOLET",
    "categorie": "Jardin d'immeubles",
    "surface": 18150,
    "arrondissement": 20,
    "lat": 48.86402350974621,
    "lon": 2.411679893332514
  },
  {
    "nom": "JARDIN TOUSSAINT LOUVERTURE",
    "categorie": "Jardin",
    "surface": 6724,
    "arrondissement": 20,
    "lat": 48.86588368853339,
    "lon": 2.3882318249190337
  },
  {
    "nom": "JARDINIERES DU 71 RUE DE BAGNOLET",
    "categorie": "Jardiniere",
    "surface": 39,
    "arrondissement": 20,
    "lat": 48.85793637119557,
    "lon": 2.399712469921469
  },
  {
    "nom": "JARDINIERES RAE DE LA RUE DE L'ARBALETE",
    "categorie": "Jardiniere",
    "surface": 204,
    "arrondissement": 5,
    "lat": 48.83941158629545,
    "lon": 2.3463615457983344
  },
  {
    "nom": "JARDINIERES EVQ DE LA RUE DU GRENIER SAINT LAZARE (EMBELLIR VOS QUARTIERS)",
    "categorie": "Jardiniere",
    "surface": 130,
    "arrondissement": 3,
    "lat": 48.86282204793127,
    "lon": 2.3531375879385084
  },
  {
    "nom": "JARDINIERES EVQ DE LA RUE DE CALAIS",
    "categorie": "Jardiniere",
    "surface": 153,
    "arrondissement": 9,
    "lat": 48.88253591334093,
    "lon": 2.330808781309557
  },
  {
    "nom": "JARDINIERES RAE  DE LA RUE EMILE LEVASSOR",
    "categorie": "Jardiniere",
    "surface": 407,
    "arrondissement": 13,
    "lat": 48.820690856848714,
    "lon": 2.368881378042933
  },
  {
    "nom": "JARDINIERES DE LA RUE PARROT",
    "categorie": "Jardiniere",
    "surface": 300,
    "arrondissement": 12,
    "lat": 48.846922976571115,
    "lon": 2.3737820958643123
  },
  {
    "nom": "JARDINIERES EVQ DE LA PLACE NATIONALE",
    "categorie": "Jardiniere",
    "surface": null,
    "arrondissement": 13,
    "lat": 48.8288433588367,
    "lon": 2.365228287959555
  },
  {
    "nom": "JARDINIERES EVQ DE LA RUE STEPHENSON",
    "categorie": "Jardiniere",
    "surface": null,
    "arrondissement": 18,
    "lat": 48.88505103906197,
    "lon": 2.3568016419128504
  },
  {
    "nom": "JADINIERES EVQ DE LA RUE DU MONT-CENIS",
    "categorie": "Jardiniere",
    "surface": null,
    "arrondissement": 18,
    "lat": 48.88653623030409,
    "lon": 2.3414279291509126
  },
  {
    "nom": "JARDINIERE ARCHE MONTORGUEUIL",
    "categorie": "Jardiniere",
    "surface": 10,
    "arrondissement": 2,
    "lat": 48.86712547411627,
    "lon": 2.347287211920086
  },
  {
    "nom": "JARDINIERES DE LA PLACE MADELEINE BRAUN",
    "categorie": "Jardiniere",
    "surface": 238,
    "arrondissement": 10,
    "lat": 48.87561098955694,
    "lon": 2.3596117176154165
  },
  {
    "nom": "JARDINIERES DE LA RUE BRUNESEAU",
    "categorie": "Jardiniere",
    "surface": null,
    "arrondissement": 13,
    "lat": 48.82507439118581,
    "lon": 2.38852558366288
  },
  {
    "nom": "VERGER DIT 'DU SOLDAT LABOUREUR'",
    "categorie": "Jardiniere",
    "surface": 1,
    "arrondissement": 4,
    "lat": 48.856151966519974,
    "lon": 2.3559617973292912
  },
  {
    "nom": "JARDINIERES DE LA RUE CHAUDRON",
    "categorie": "Jardiniere",
    "surface": null,
    "arrondissement": 10,
    "lat": 48.88262887390243,
    "lon": 2.366667773819869
  },
  {
    "nom": "JARDIN DES GRANDS MOULINS  - JARDIN CENTRAL",
    "categorie": "Jardin",
    "surface": 7916,
    "arrondissement": 13,
    "lat": 48.82928326203656,
    "lon": 2.3801715592683195
  },
  {
    "nom": "JARDINIERES RAE DE LA RUE ROBERT ESTIENNE",
    "categorie": "Jardiniere",
    "surface": 76,
    "arrondissement": 8,
    "lat": 48.86888118476512,
    "lon": 2.3048029037684263
  },
  {
    "nom": "JARDINIERE ANGLE DES RUES MELINGUE - FESSART",
    "categorie": "Jardiniere",
    "surface": 22,
    "arrondissement": 19,
    "lat": 48.876582996154966,
    "lon": 2.3862541480284976
  },
  {
    "nom": "JARDINIERES GAUCHE DE L ESCALIER STENDHAL",
    "categorie": "Jardiniere",
    "surface": 50,
    "arrondissement": 20,
    "lat": 48.860396863800986,
    "lon": 2.403035733827014
  },
  {
    "nom": "JARDINIERES BELLEVILLE CONTRE ALLEE TELEGRAPHE",
    "categorie": null,
    "surface": 120,
    "arrondissement": 19,
    "lat": 48.87548492267893,
    "lon": 2.3965351966087907
  },
  {
    "nom": "JARDIN PARTAGE 238-240 BOULEVARD DE LA VILLETTE",
    "categorie": "Jardin partage",
    "surface": 400,
    "arrondissement": 19,
    "lat": 48.88458503435804,
    "lon": 2.365567525732703
  },
  {
    "nom": "JARDINIERE VERTICALE DU 11 RUE MAURICE DE LA SIZERANNE",
    "categorie": "Murs vegetalises",
    "surface": null,
    "arrondissement": 7,
    "lat": 48.84741692520373,
    "lon": 2.314911031600446
  },
  {
    "nom": "JARDINIERE VERTICALE DU SQUARE SANTIAGO DU CHILI",
    "categorie": "Murs vegetalises",
    "surface": 13,
    "arrondissement": 7,
    "lat": 48.85724681350438,
    "lon": 2.310899971502975
  },
  {
    "nom": "DECORATION DE LA RUE DE VAUGIRARD",
    "categorie": "Decoration",
    "surface": 34,
    "arrondissement": 6,
    "lat": 48.849160900242794,
    "lon": 2.3346639996127294
  },
  {
    "nom": "SQUARE JACQUES ANTOINE",
    "categorie": "Square",
    "surface": 843,
    "arrondissement": 14,
    "lat": 48.83473964584537,
    "lon": 2.331828900593572
  },
  {
    "nom": "SQUARE YVES KLEIN",
    "categorie": "Square",
    "surface": 715,
    "arrondissement": 14,
    "lat": 48.83907372948443,
    "lon": 2.3311246291519128
  },
  {
    "nom": "JARDINIERES RAE DE LA RUE LOUIS BLANC",
    "categorie": "Jardiniere",
    "surface": 302,
    "arrondissement": 10,
    "lat": 48.88246575915425,
    "lon": 2.3627587668670462
  },
  {
    "nom": "JARDINET DE LA MAISON COMMUNALE",
    "categorie": "Jardinet",
    "surface": 150,
    "arrondissement": 15,
    "lat": 48.84558504124556,
    "lon": 2.2914884585944684
  },
  {
    "nom": "JARDINIERES DE LA PLACE TRISTAN BERNARD",
    "categorie": "Jardiniere",
    "surface": 20,
    "arrondissement": 17,
    "lat": 48.879554632373164,
    "lon": 2.2912757210855843
  },
  {
    "nom": "JARDINIERES RAE DE LA RUE PIERRE FONCIN",
    "categorie": "Jardiniere",
    "surface": 550,
    "arrondissement": 20,
    "lat": 48.871467543059424,
    "lon": 2.4099508833533556
  },
  {
    "nom": "JARDINIERE VERTICALE DU 1 AVENUE ADRIEN HEBRARD",
    "categorie": "Murs vegetalises",
    "surface": null,
    "arrondissement": 16,
    "lat": 48.85322132857909,
    "lon": 2.269993597354664
  },
  {
    "nom": "JARDINIERES VGA DE L AVENUE DEBIDOUR",
    "categorie": "Jardiniere",
    "surface": null,
    "arrondissement": 19,
    "lat": 48.88141410446088,
    "lon": 2.396879395362995
  },
  {
    "nom": "JARDIN PARTAGE DU SQUARE DES DEUX NETHES",
    "categorie": "Jardin partage",
    "surface": 150,
    "arrondissement": 18,
    "lat": 48.88591294898297,
    "lon": 2.327858680895785
  },
  {
    "nom": "JARDINETS DE LA MAIRIE DE PARIS CENTRE",
    "categorie": "Jardinet",
    "surface": 236,
    "arrondissement": 3,
    "lat": 48.86385775513695,
    "lon": 2.361728173311372
  },
  {
    "nom": "JARDINIERES DE L'AVENUE DE CHOISY",
    "categorie": "Jardiniere",
    "surface": 160,
    "arrondissement": 13,
    "lat": 48.83022518478357,
    "lon": 2.3569358951713006
  },
  {
    "nom": "JARDINIERE VERTICALE DU 105 RUE DE BUZENVAL",
    "categorie": "Murs vegetalises",
    "surface": null,
    "arrondissement": 20,
    "lat": 48.85484651416285,
    "lon": 2.3988327693008387
  },
  {
    "nom": "03-06",
    "categorie": "Talus",
    "surface": null,
    "arrondissement": 13,
    "lat": 48.816266390448355,
    "lon": 2.344728314379543
  },
  {
    "nom": "SQUARE ALFRED CAPUS",
    "categorie": "Square",
    "surface": 2182,
    "arrondissement": 16,
    "lat": 48.85087844356714,
    "lon": 2.259782888664033
  },
  {
    "nom": "JARDIN DU CLOS DES BLANCS MANTEAUX-FRANCESCA DANDOLO",
    "categorie": "Jardin",
    "surface": 969,
    "arrondissement": 4,
    "lat": 48.858614978289566,
    "lon": 2.356505654906898
  },
  {
    "nom": "JARDINET DU ROND POINT DU PONT MIRABEAU",
    "categorie": "Jardinet",
    "surface": 363,
    "arrondissement": 15,
    "lat": 48.84599053760774,
    "lon": 2.2771216840823105
  },
  {
    "nom": "JARDINIERE DE LA RUE DU BAC",
    "categorie": "Jardiniere",
    "surface": 92,
    "arrondissement": 7,
    "lat": 48.856784699062445,
    "lon": 2.3273901883623216
  },
  {
    "nom": "JARDIN DES ARENES DE MONTMARTRE",
    "categorie": "Jardin",
    "surface": 875,
    "arrondissement": 18,
    "lat": 48.88566774293101,
    "lon": 2.3417409958895146
  },
  {
    "nom": "DECORATION DE LA PLACE MAUBERT",
    "categorie": "Decoration",
    "surface": 45,
    "arrondissement": 5,
    "lat": 48.850222421455456,
    "lon": 2.3485830063074253
  },
  {
    "nom": "SQUARE COLBERT",
    "categorie": "Square",
    "surface": 6337,
    "arrondissement": 11,
    "lat": 48.85642147213323,
    "lon": 2.38935150752335
  },
  {
    "nom": "JARDINIERE VERTICALE DU 7 RUE DE L'INDUSTRIE",
    "categorie": "Murs vegetalises",
    "surface": null,
    "arrondissement": 13,
    "lat": 48.82263164206427,
    "lon": 2.3572297123850134
  },
  {
    "nom": "JARDINIERES DE L'AVENUE LAMORICIERE",
    "categorie": "Jardiniere",
    "surface": 300,
    "arrondissement": 12,
    "lat": 48.845446185514014,
    "lon": 2.4127780882038827
  },
  {
    "nom": "29-00",
    "categorie": "Talus",
    "surface": null,
    "arrondissement": 20,
    "lat": 48.86961457996422,
    "lon": 2.4136896945162376
  },
  {
    "nom": "JARDIN DU MOULIN DES TROIS CORNETS",
    "categorie": "Jardin",
    "surface": 1000,
    "arrondissement": 14,
    "lat": 48.83667372973764,
    "lon": 2.3223654513451706
  },
  {
    "nom": "JARDINIERE VERTICALE DE LA PLACE OVIDA DELECT",
    "categorie": "Murs vegetalises",
    "surface": 10,
    "arrondissement": 4,
    "lat": 48.85916749309183,
    "lon": 2.3563930776069237
  },
  {
    "nom": "SQUARE RAYMOND SOUPLEX",
    "categorie": "Square",
    "surface": 456,
    "arrondissement": 18,
    "lat": 48.89176784257832,
    "lon": 2.335468491412606
  },
  {
    "nom": "SQUARE DU CAPORAL PEUGEOT",
    "categorie": "Square",
    "surface": 1411,
    "arrondissement": 17,
    "lat": 48.88700919911671,
    "lon": 2.290101269683104
  },
  {
    "nom": "PROMENADE PEREIRE - PROMENADE GILBERTE BROSSOLETTE",
    "categorie": "Promenade",
    "surface": 2310,
    "arrondissement": 17,
    "lat": 48.88422987490524,
    "lon": 2.2958580488378795
  },